"id","店舗名","店舗名（英語）","住所","住所（英語）","検索条件エリア","カテゴリ（まとめ）","SSID種類","lat","lng"
"1","紀三井寺","Kimiidera Temple","和歌山市紀三井寺1201","1201 Kimiidera, Wakayama-shi","和歌山市エリア","観光スポット,その他","L","34.183601","135.191711"
"2","シマ商店","Shima Shoten Food Shop","和歌山市和歌浦南3-5-19","3-5-19 Wakauraminami, Wakayama-shi","和歌山市エリア","グルメ,ショッピング","N","34.185242","135.170593"
"3","コーヒーハウスノッティパイン","Coffee House Knotty Pine","和歌山市吹上2-4-4","2-4-4 Fukiage, Wakayama-shi","和歌山市エリア","グルメ","N","34.221096","135.170181"
"4","三年坂モカ","Sannenzaka MOCA Cafe","和歌山市片岡町1丁目1-23","1-1-23 Kataokacho, Wakayama-shi","和歌山市エリア","グルメ","N","34.225182","135.174438"
"5","レストランカフェデサフィナード","Restaurant Cafe Desafinado","和歌山市紀三井寺807-2","807-2 Kimiidera, Wakayama-shi","和歌山市エリア","グルメ","N","34.188656","135.181854"
"6","ホテルはやし","Hotel Hayashi","和歌山市紀三井寺673","673 Kimiidera, Wakayama-shi","和歌山市エリア","宿泊","N","34.18499","135.187424"
"7","産直市場よってっていなり店","Farmer's market Sanchoku Ichiba Yottette, Inari","田辺市稲成町270-1","270-1 Inaricho, Tanabe-shi","熊野エリア","グルメ,ショッピング","N","33.741989","135.374359"
"8","産直市場よってって貴志川店","Farmer's market Sanchoku Ichiba Yottette, Kishigawa","紀の川市貴志川町前田166","166 Maeda, Kishigawacho, Kinokawa-shi","和歌山市エリア","グルメ,ショッピング","N","34.22377","135.322586"
"9","バールヌメロオンセ","Bar Numero Once (No. 11)","和歌山市十一番丁16","16 Juichibancho, Wakayama-shi","和歌山市エリア","グルメ","L","34.2323","135.175293"
"10","和歌山バス　紀伊駅前定期券発売所","Wakayama Bus season ticket shop","紀の川市北野410-3","410-3 Kitano, Kinokawa-shi","和歌山市エリア","公共交通","N","34.284973","135.385361"
"11","酒のワールド　橋本店","Sake no World Hashimoto store, liquor shop","橋本市隅田町河瀬429","429 Kawase, Shudacho, Hashimoto-shi","高野山エリア","ショッピング","L","34.323391","135.62822"
"12","酒のワールド　次郎丸ストア","Sake no World Jiromaru store, liquor shop","和歌山市次郎丸17","17 Jiromaru, Wakayama-shi","和歌山市エリア","ショッピング","L","34.254635","135.151215"
"13","山下時計店","Yamashita Tokeiten Watch Store","和歌山市本町3-31","3-31 Honmachi, Wakayama-shi","和歌山市エリア","ショッピング","N","34.235359","135.174667"
"14","双子島荘","Futagojimaso Hotel","和歌山市雑賀崎599","599 Saikazaki, Wakayama-shi","和歌山市エリア","宿泊","N","34.191654","135.141403"
"15","丸源ラーメン田辺店","Marugen Ramen Restaurant, Tanabe","田辺市上の山1-6-11","1-6-11 Uenoyama, Tanabe-shi","熊野エリア","グルメ","N","33.736027","135.365952"
"16","まいどおおきに田辺新庄食堂","Maidookini restaurant, Tanabe-shinjyo","田辺市新庄町1977-1","1977-1 Shinjocho, Tanabe-shi","熊野エリア","グルメ","N","33.717064","135.404175"
"17","赤から紀伊田辺店","Akakara Restaurant, Kiitanabe","田辺市上の山1丁目2-18","1-2-18 Uenoyama, Tanabe-shi","熊野エリア","グルメ","N","33.736794","135.368637"
"18","まいどおおきに御坊財部食堂","Maidookini restaurant, Gobo-takara","御坊市湯川町財部70-2","70-2 Takara, Yukawacho, Gobo-shi","有田・湯浅・日高エリア","グルメ","N","33.902966","135.149612"
"19","まいどおおきに新宮佐野食堂","Maidookini restaurant, Shingu-sano","新宮市佐野3-11-19","3-11-19 Sano, Shingu-shi","熊野エリア","グルメ","N","33.674515","135.970322"
"20","丸源ラーメン御膳松店","Marugen Ramen Restaurant, Gozenmatsu","和歌山市湊1827-6","1827-6 Minato, Wakayama-shi","和歌山市エリア","グルメ","N","34.236523","135.154083"
"21","炭火焼肉屋さかい岩出店","Sumibiyakinikuya restaurant Sakai,Iwade","岩出市中島872-2","872-2 Nakajima, Iwade-shi","和歌山市エリア","グルメ","N","34.258621","135.29953"
"22","割烹　恵比寿","Kappo Restaurant Ebisu","和歌山市黒田261-2","261-2 Kuroda, Wakayama-shi","和歌山市エリア","グルメ","L","34.236649","135.197968"
"23","ビジネスホテル圭","Business Hotel Kei","和歌山市紀三井寺738-2","738-2 Kimiidera, Wakayama-shi","和歌山市エリア","宿泊","L","34.187965","135.18541"
"24","中国酒家くぅくぅ","Chinese restaurant Kuku","和歌山市元寺町2丁目13番地","2-13 Motoderamachi, Wakayama-shi","和歌山市エリア","グルメ","L","34.235756","135.177124"
"25","和粋彩いずみ","Japanese restaurant Wasuisai Izumi","和歌山市十番丁59ﾗｲｵﾝｽﾞﾏﾝｼｮﾝ1F","Lions Mansion 1F, 59 Jubancho, Wakayama-shi","和歌山市エリア","グルメ","N","34.230846","135.176392"
"26","ゆりかわ商店","Yurikawa stationary shop ","和歌山市吹上4-1-51","4-1-51 Fukiage, Wakayama-shi","和歌山市エリア","ショッピング","N","34.216251","135.17041"
"27","ホテルアバローム紀の国","Hotel Avalorm Kino-kuni","和歌山市湊通丁北2丁目1-2","2-1-2 Minatotorichokita, Wakayama-shi","和歌山市エリア","宿泊","L","34.224079","135.167114"
"28","イオンモール和歌山","AEONMALL Wakayama","和歌山市中字楠谷573","573 Nakaazakusutani, Wakayama-shi","和歌山市エリア","グルメ,ショッピング","L","34.261799","135.147034"
"29","アムールミーモ店","AMORE MiiMo store","和歌山市南桶屋町10番地","10 Minamiokeyamachi, Wakayama-shi","和歌山市エリア","ショッピング","L","34.235344","135.175095"
"30","文房創庫オーヤマ","Oyama stationary store","和歌山市橋向丁17-1","17-1 Hashimukaicho, Wakayama-shi","和歌山市エリア","ショッピング","N","34.227226","135.183945"
"31","焼肉でん　新宮店","Yakiniku restaurant Den, Shingu","新宮市新宮3615-5","3615-5 Shingu, Shingu-shi","熊野エリア","グルメ","L","33.712086","135.987061"
"32","焼肉でん　御坊店","Yakiniku restaurant Den, Gobo","御坊市湯川町財部812-2","812-2 Takara, Yukawacho, Gobo-shi","有田・湯浅・日高エリア","グルメ","L","33.900505","135.151474"
"33","焼肉でん　田辺店","Yakiniku restaurant Den, Tanabe","田辺市新庄町2155-1","2155-1 Shinjocho, Tanabe-shi","熊野エリア","グルメ","N","33.717918","135.402634"
"34","焼肉でん　西浜店","Yakiniku restaurant Den, Nishihama","和歌山市西浜466-1","466-1 Nishihama, Wakayama-shi","和歌山市エリア","グルメ","N","34.201237","135.157578"
"35","カフェ＆レスト　紀和紀伊店","Café and restaurant Kiwa, Kii","和歌山市弘西773-17","773-17 Hironishi, Wakayama-shi","和歌山市エリア","グルメ","N","34.267807","135.243881"
"36","北の町１９番地","Café Kitanomachi No.19","和歌山市中ﾉ店北ﾉ丁10-1","10-1 Kitanocho, Nakanotana, Wakayama-shi","和歌山市エリア","グルメ","N","34.235313","135.175903"
"37","新和歌ロッジ","Shinwaka Lodge guesthouse","和歌山市新和歌浦2-3","2-3 Shinwakaura, Wakayama-shi","和歌山市エリア","宿泊","N","34.185745","135.156937"
"38","ＦＬＥＸ","Flex sports gym","和歌山市和歌浦東4-4","4-4 Wakaurahigashi, Wakayama-shi","和歌山市エリア","その他","L","34.187763","135.177963"
"39","マクドナルド紀三井寺店","McDonald's, Kimiidera","和歌山市小雑賀762-1","762-1 Kozaika, Wakayama-shi","和歌山市エリア","グルメ","N","34.197922","135.185989"
"40","マクドナルド宮街道店","McDonald's Restaurant,  Miyakaido","和歌山市秋月285-1","285-1 Akizuki, Wakayama-shi","和歌山市エリア","グルメ","N","34.230682","135.204346"
"41","マクドナルド四ヶ郷店","McDonald's, Shikago","和歌山市加納319-7","319-7 Kano, Wakayama-shi","和歌山市エリア","グルメ","N","34.244167","135.206848"
"42","マクドナルド４２号海南店","McDonald's restaurant, Kainan Route 42","海南市船尾238-1","238-1 Funo, Kainan-shi","和歌山市エリア","グルメ","N","34.159203","135.201767"
"43","ＨＯＴＥＬ　きのくに","HOTEL Kinokuni","和歌山市松江北7丁目10-8","7-10-8 Matsuekita, Wakayama-shi","和歌山市エリア","宿泊","N","34.252857","135.124908"
"44","ぶらくり丁商店街","Burakuri chō Shopping street ","和歌山市本町1丁目","1 Honmachi, Wakayama-shi","和歌山市エリア","グルメ,ショッピング,その他","N","34.233303","135.174347"
"45","よこい","Yokoi Restaurant","和歌山市太田44-6","44-6 Oda, Wakayama-shi","和歌山市エリア","グルメ","N","34.225479","135.193985"
"46","磯賀屋","Isokaya Nori, dried laver seaweed store","和歌山市加太1469","1469 Kada Wakayama-shi","和歌山市エリア","ショッピング","L","34.276546","135.074188"
"47","オークワ　新宮仲之町店","Okuwa Shingunakanocho","新宮市谷王子町418-1","418-1 Taniojicho, Shingu-shi","熊野エリア","グルメ,ショッピング","L","33.728191","135.988419"
"48","オークワ　新宮駅前店","Okuwa Shingu Ekimae","新宮市蓬莱2-1-1","2-1-1 Horai, Shingu-shi","熊野エリア","グルメ,ショッピング","L","33.7258","135.996719"
"49","オークワ　古座川店","Okuwa Kozagawa","東牟婁郡古座川町高池64","64 Takaike, Kozagawa-cho Higashimuro-gun","白浜・串本エリア","グルメ,ショッピング","L","33.532391","135.814468"
"50","オークワ　串本店","Okuwa Kushimototen","東牟婁郡串本町串本40-22","40-22 Kushimoto, Kushimoto-cho Higashimuro-gun","白浜・串本エリア","グルメ,ショッピング","L","33.47504","135.782272"
"51","オークワ　日置店","Okuwa Hiki","西牟婁郡白浜町日置45","45 Hiki, Shirahama-cho Nishimuro-gun","白浜・串本エリア","グルメ,ショッピング","L","33.569489","135.449722"
"52","オークワ　オーシティ田辺店","Okuwa Oshititanabe","田辺市東山1-5-1","1-5-1 Higashiyama, Tanabe-shi","熊野エリア","グルメ,ショッピング","L","33.728722","135.388626"
"53","オークワ　桃山店","Okuwa Momoyama","紀の川市桃山町最上153-14","153-14 Momoyamacho Mogami, Kinokawa-shi","和歌山市エリア","グルメ,ショッピング","L","34.238827","135.342606"
"54","オークワ　湯浅店","Okuwa Yuasa","有田郡湯浅町湯浅1852","1852 Yuasa, Yuasa-cho Arida-gun","有田・湯浅・日高エリア","グルメ,ショッピング","L","34.041283","135.187134"
"55","スーパーセンターオークワ　パームシティ和歌山店","Okuwa SuC Palm City Wakayama","和歌山市中野31-1","31-1 Nakano, Wakayama-shi","和歌山市エリア","グルメ,ショッピング","L","34.255093","135.139786"
"56","オークワ　パビリオンシティ田辺店","Okuwa Pavilion City Tanabe","田辺市稲成町新江原3165","Sinehara 3165 Inaricho, Tanabe-shi","熊野エリア","グルメ,ショッピング","L","33.747883","135.378357"
"57","スーパーセンターオークワ　有田川店","Okuwa SuC Aridagawa","有田郡有田川町天満407-1","407-1 Temma, Aridagawa-cho Arida-gun","有田・湯浅・日高エリア","グルメ,ショッピング","L","34.060692","135.208969"
"58","オークワ　紀三井寺店","Okuwa Kimiidera","和歌山市毛見薮下19","Yabusita19 Kemi, Wakayama-shi","和歌山市エリア","グルメ,ショッピング","L","34.163319","135.189346"
"59","オークワ　貴志川店","Okuwa Kishigawa","紀の川市貴志川町神戸205-1","205-1 Kishigawacho Kodo, Kinokawa-shi","和歌山市エリア","グルメ,ショッピング","L","34.217098","135.316025"
"60","オークワ　粉河店","Okuwa Kokawa","紀の川市粉河762","762 Kokawa, Kinokawa-shi","和歌山市エリア","グルメ,ショッピング","L","34.267307","135.405624"
"61","オークワ　みなべ店","Okuwa Minabe","日高郡みなべ町芝227-1","227-1 Shiba, Minabe-cho Hidaka-gun","有田・湯浅・日高エリア","グルメ,ショッピング","L","33.768219","135.326645"
"62","オークワ　かつらぎ店","Okuwa Katsuragi","伊都郡かつらぎ町佐野881-1","881-1 Saya, Katsuragi-cho Ito-gun","高野山エリア","グルメ,ショッピング","L","34.292439","135.487152"
"63","オークワ　岩出西店","Okuwa Iwadenishi","岩出市中黒641-1","641-1 Nakakuro, Iwade-shi","和歌山市エリア","グルメ,ショッピング","L","34.264317","135.286255"
"64","オークワ　本社中島店","Okuwa Honshanakajima","和歌山市中島185-3","185-3 Nakajima, Wakayama-shi","和歌山市エリア","グルメ,ショッピング","L","34.207752","135.186356"
"65","オークワ　ロマンシティ御坊店","Okuwa Romain City Gobo","御坊市湯川町財部181","181 Yukawacho Takara, Gobo-shi","有田・湯浅・日高エリア","グルメ,ショッピング","L","33.897621","135.148758"
"66","オークワ　ミレニアシティ岩出店","Okuwa Millenia City Iwade","岩出市中迫147","147 Nakabusa, Iwade-shi","和歌山市エリア","グルメ,ショッピング","L","34.25993","135.314346"
"67","オークワ　オー・ストリート　和歌山北バイパス店","Okuwa OS Wakayamakita bypass","和歌山市平井154","154 Hirai, Wakayama-shi","和歌山市エリア","グルメ,ショッピング","L","34.260197","135.169296"
"68","オークワ　白浜堅田店","Okuwa Shirahamakatata","西牟婁郡白浜町堅田塩谷2056-1","Sioya 2056-1 Katata, Shirahama-cho Nishimuro-gun","白浜・串本エリア","グルメ,ショッピング","L","33.680035","135.375351"
"69","オークワ　高野口店","Okuwa Koyaguchi","橋本市高野口町伏原139-1","139-1 Koyaguchicho Fushihara, Hashimoto-shi","高野山エリア","グルメ,ショッピング","L","34.304405","135.569626"
"70","オークワ　大浦街道店","Okuwa Ourakaido","和歌山市湊西ﾉ坪45-1","45-1 Minato, Wakayama-shi","和歌山市エリア","グルメ,ショッピング","L","34.234539","135.155258"
"71","オークワ　箕島店","Okuwa Minoshima","有田市新堂10-3","10-3 Shindo, Arida-shi","有田・湯浅・日高エリア","グルメ,ショッピング","L","34.085003","135.12822"
"72","オークワ　海南幡川店","Okuwa Kainanhatagawa","海南市幡川下九条105","Sitakuzyou105 Hatagawa, Kainan-shi","和歌山市エリア","グルメ,ショッピング","L","34.15173","135.230499"
"73","メッサオークワ　ガーデンパーク和歌山店","Okuwa MESA Garden Park Wakayama","和歌山市松江向鵜ﾉ島1469-1","Mukiunozima1469-1 Matsue, Wakayama-shi","和歌山市エリア","グルメ,ショッピング","L","34.240803","135.136826"
"74","スーパーセンターオークワ　上富田店","Okuwa SuC Kamitonda","西牟婁郡上富田町朝来154-1","154-1 Asso, Kamitonda-cho Nishimuro-gun","白浜・串本エリア","グルメ,ショッピング","L","33.698959","135.427658"
"75","スーパーセンターオークワ　南紀店","Okuwa SuC Nanki","新宮市佐野3-11-19","3-11-19 Sano, Shingu-shi","熊野エリア","グルメ,ショッピング","L","33.674515","135.970322"
"76","オークワ　オー・ストリート　橋本彩の台店","Okuwa OS HashimotoAyanodai","橋本市あやの台1-50-3","1-50-3 Ayanodai, Hashimoto-shi","高野山エリア","グルメ,ショッピング","L","34.336273","135.652252"
"77","オークワ　和歌山中之島店","Okuwa Wakayamanakanoshima","和歌山市納定104","104 Nojo, Wakayama-shi","和歌山市エリア","グルメ,ショッピング","L","34.238796","135.189026"
"78","オークワ　六十谷店","Okuwa Musota","和歌山市六十谷217-1","217-1 Musota, Wakayama-shi","和歌山市エリア","グルメ,ショッピング","L","34.261417","135.202637"
"79","メッサオークワ　高松店","Okuwa MESA Takamatsu","和歌山市西高松1-7-88","1-7-88 Nishitakamatsu, Wakayama-shi","和歌山市エリア","グルメ,ショッピング","L","34.207653","135.169907"
"80","オークワ　すさみ店","Okuwa Susami","西牟婁郡すさみ町周参見3766","3766 Susami, Susami-cho Nishimuro-gun","白浜・串本エリア","グルメ,ショッピング","L","33.554203","135.49559"
"81","オークワ　海南野上店","Okuwa Kainannokami","海南市野上中420","420 Nokami Naka, Kainan-shi","和歌山市エリア","グルメ,ショッピング","L","34.163715","135.282837"
"82","スーパーセンターオークワ　橋本店","Okuwa SuC Hashimoto","橋本市妻2-2-25","2-2-25 Tsuma, Hashimoto-shi","高野山エリア","グルメ,ショッピング","L","34.319771","135.622894"
"83","スーパーセンターオークワ　海南店","Okuwa SuC Kainan","海南市築地1-1","1-1 Tsukiji, Kainan-shi","和歌山市エリア","グルメ,ショッピング","L","34.153084","135.210388"
"84","オークワ　屋形店","Okuwa Yakata","和歌山市屋形町4-29","4-29 Yakatamachi, Wakayama-shi","和歌山市エリア","グルメ,ショッピング","L","34.224842","135.178009"
"85","スーパーセンターオークワ　セントラルシティ和歌山店","Okuwa SuC Central City Wakayama","和歌山市小雑賀805-1","805-1 Kozaika, Wakayama-shi","和歌山市エリア","グルメ,ショッピング","L","34.195702","135.183716"
"86","ＧｕｅｓｔＨｏｕｓｅ　ＲＩＣＯ","Guest House RICO","和歌山市新通5-6","5-6 Shintori, Wakayama-shi","和歌山市エリア","宿泊","L","34.231922","135.179794"
"87","味千拉麺　和歌山北インター店","Ajisen ramen restaurant, Wakayama  Kita Interchange","和歌山市田屋105ｺﾒﾘ駐車場内","On the site of the parking lot of Komeri, 105 Taya, Wakayama-shi","和歌山市エリア","グルメ","N","34.258495","135.22551"
"88","日本赤十字社和歌山医療センター","Japanese Red Cross Wakayama Medical Center","和歌山市小松原通4-20","4-20 Komatsubaradori, Wakayama-shi","和歌山市エリア","その他","N","34.220116","135.168777"
"89","ぶらくり丁　大通り商店街","Burakuri chō  ohdori Shopping street ","和歌山市元寺町1","1 Motoderamachi, Wakayama-shi","和歌山市エリア","グルメ,ショッピング,その他","N","34.234455","135.177475"
"90","島崎家具","Shimazaki furniture shop","和歌山市黒田1丁目4-1","1-4-1 Kuroda, Wakayama-shi","和歌山市エリア","ショッピング","N","34.233368","135.1922"
"91","わかやま旅案内所","Wakayama Travel Information","和歌山市七番丁26-1ﾀﾞｲﾜﾛｲﾈｯﾄﾎﾃﾙ2F","Daiwa Roynet Hotel 2F, 26-1 Shichibancho, Wakayama-shi","和歌山市エリア","グルメ,ショッピング,観光スポット,その他","N","34.230457","135.172684"
"92","トレーディングカードショップ　マナソース","Manasosu Trading Card shop ","和歌山市太田1-6-11","1-6-11 Oda, Wakayama-shi","和歌山市エリア","ショッピング","L","34.229877","135.192673"
"93","木村屋旅館","Kimuraya Ryokan","和歌山市新和歌浦2-2","2-2 Shinwakaura, Wakayama-shi","和歌山市エリア","宿泊","N","34.185745","135.156937"
"94","東ぶらくり丁商店街","Higashi burakurichō Shopping street ","和歌山市新堺丁25","25 Shinsakaicho, Wakayama-shi","和歌山市エリア","グルメ,ショッピング,その他","N","34.234581","135.179688"
"95","イズミヤ和歌山店","Supremarket Izumiya Wakayama Store","和歌山市新生町7-20","7-20 Shinseicho, Wakayama-shi","和歌山市エリア","グルメ,ショッピング","N","34.221626","135.187576"
"96","グリル　エイト","Restaurant Grill Eight","和歌山市八番丁32","32 Hachibancho, Wakayama-shi","和歌山市エリア","グルメ","N","34.230625","135.16864"
"97","きのくに信用金庫　本店営業部","Kinokuni Shinkin Bank, central branch","和歌山市本町2-38","2-38 Honmachi, Wakayama-shi","和歌山市エリア","その他","N","34.234436","135.174667"
"98","きのくに信用金庫　白浜支店","Kinokuni Shinkin Bank, Shirahama branch","西牟婁郡白浜町911-8","911-8 Shirahamacho, Nishimuro-gun","白浜・串本エリア","その他","N","33.669189","135.402939"
"99","ばり馬和歌山四ヶ郷店","Ramen Restaurant Bariuma Wakayama Shikago Restaurant","和歌山市加納204-2","204-2 Kano, Wakayama-shi","和歌山市エリア","グルメ","N","34.245415","135.204605"
"100","ばり馬和歌山新堀店","Ramen Restaurant Bariuma Wakayama S hinbori Restaurant","和歌山市手平6-108-1","6-108-1 Tebira, Wakayama-shi","和歌山市エリア","グルメ","N","34.215401","135.182281"
"101","ばり馬和歌山岩出店","Restaurant Bariuma Wakayama Iwade Restaurant","岩出市川尻17-8","17-8 Kawajiri, Iwade-shi","和歌山市エリア","グルメ","N","34.269115","135.308914"
"102","ばり馬和歌山紀三井寺店","Ramen Restaurant Bariuma Wakayama Kimiidera Restaurant","和歌山市毛見12-11","12-11 Kemi, Wakayama-shi","和歌山市エリア","グルメ","N","34.164272","135.187134"
"103","海鮮せいろ蒸し勝浦","Restaurant Kaisen Seiromushi Katsuura","和歌山市湊45-1","45-1 Minato, Wakayama-shi","和歌山市エリア","グルメ","N","34.215439","135.157196"
"104","伊酒屋　ｐｒｅｇｏ","Restaurant Izakaya Prego","和歌山市太田1-4‐34伊勢屋ﾋﾞﾙ1F","Iseya Building 1F, 1-4-34 Oda, Wakayama-shi","和歌山市エリア","グルメ","N","34.230137","135.193863"
"105","鮨、天の","Sushi Restaurant Amano","和歌山市元寺町3-5","3-5 Motoderamachi, Wakayama-shi","和歌山市エリア","グルメ","L","34.237679","135.177109"
"106","ビジネスホテルタツミ","Business Hotel Tatsumi","和歌山市紀三井寺618","618 Kimiidera, Wakayama-shi","和歌山市エリア","宿泊","N","34.184052","135.184982"
"107","ファミリーショップ　クイノセ","Family Shop Kuinose daily necessities shop","和歌山市舟大工28","28 Funadaikumachi, Wakayama-shi","和歌山市エリア","ショッピング","N","34.234615","135.169037"
"108","南海マリーナ","Nankai Marina","和歌山市湊1820","1820 Minato, Wakayama-shi","和歌山市エリア","ショッピング,その他","L","34.236916","135.157547"
"109","和歌山県書道資料館","Wakayama calligraphy musium","和歌山市西汀丁61","61 Nishimigiwacho, Wakayama-shi","和歌山市エリア","その他","L","34.228939","135.167206"
"110","和歌山トヨタ自動車株式会社　美園店","Car Dealer Wakayama Toyota Motors Misono branch ","和歌山市美園町2-65","2-65 Misonocho, Wakayama-shi","和歌山市エリア","その他","L","34.231403","135.186325"
"111","和歌山トヨタ自動車株式会社フォルクスワーゲン和歌山中央","Wakayama Toyota, Volkswagen  Wakayama chuo, Car Dealer","和歌山市栗栖647-1","647-1 Kurusu, Wakayama-shi","和歌山市エリア","その他","L","34.239437","135.218918"
"112","国立大学法人　和歌山大学","National University Corporation Wakayama University","和歌山市栄谷930","5 Ichibancho, Wakayama-shi","和歌山市エリア","その他","N","34.269337","135.157089"
"113","松源　本店","Supermarket Matsugen Head Store","和歌山市吹上2丁目4番50号","2-4-50 Fukiage, Wakayama-shi","和歌山市エリア","グルメ,ショッピング","N","34.221096","135.170181"
"114","松源　海南日方店","Supermarket Matsugen Kainanhikata Store","海南市日方上芦原1030番地","1030 Kamiashihara, Hikata, Kainan-shi","和歌山市エリア","グルメ,ショッピング","N","34.160599","135.217484"
"115","松源　下津店","Supermarket Matsugen Shimotsu Store","海南市下津町丁65-1","65-1 Yoro Shimotsucho, Kainan-shi","和歌山市エリア","グルメ,ショッピング","N","34.121593","135.155823"
"116","松源　箕島店","Supermarket Matsugen Minoshima Store","有田市箕島721番地の1","721-1 Minoshima, Arida-shi","有田・湯浅・日高エリア","グルメ,ショッピング","N","34.087437","135.112717"
"117","松源　粉河店","Supermarket Matsugen Kokawa Store","紀の川市粉河785番地","785 Kokawa, Kinokawa-shi","和歌山市エリア","グルメ,ショッピング","N","34.269657","135.40567"
"118","松源　妙寺店","Supermarket Matsugen Myoji Shop","伊都郡かつらぎ町妙寺160番地の8","160-8 Myoji, Katsuragicho, Ito-gun","高野山エリア","グルメ,ショッピング","N","34.301003","135.529602"
"119","松源　吉備店","Supermarket Matsugen Kibi Store","有田郡有田川町下津野558番地","558 Shimotsuno, Aridagawacho, Arida-gun","有田・湯浅・日高エリア","グルメ,ショッピング","N","34.06673","135.215576"
"120","松源　高野口店","Supermarket Matsugen Koyaguchi Store","橋本市高野口町名倉東大芝199番地の1","199-1 Higashioshiba nagura Koyaguchicho, Hashimoto-shi","高野山エリア","グルメ,ショッピング","N","34.30497","135.554642"
"121","松源　栄谷店","Supermarket Matsugen Sakaedani Store","和歌山市延時字水口10番地の1","10-1 Mizuguchi, Nobutoki, Wakayama-shi","和歌山市エリア","グルメ,ショッピング","N","34.252323","135.149689"
"122","松源　橋本店","Supermarket Matsugen Hashimoto Store","橋本市東家1丁目166番地の1","1-166-1 Toge, Hashimoto-shi","高野山エリア","グルメ,ショッピング","N","34.315731","135.603592"
"123","松源　貴志川店","Supermarket Matsugen Kishigawa Store","紀の川市貴志川町神戸字野手218ｲｵﾝﾀｳﾝ貴志川ｼｮｯﾋﾟﾝｸﾞｾﾝﾀｰ内","In the Aeon Town Kishigawa Shopping Center, 218 Node, Kodo, Kishigawacho, Kinokawa-shi","和歌山市エリア","グルメ,ショッピング","N","34.213852","135.316925"
"124","松源　吉礼駅前店","Supermarket Matsugen Kireekimae Store","和歌山市吉礼1612番地の2","1612-2 Kire, Wakayama-shi","和歌山市エリア","グルメ,ショッピング","N","34.203873","135.236389"
"125","松源　湯浅店","Supermarket Matsugen Yuasa Store","有田郡湯浅町1658番地の1","1658-1 Yuasacho, Arida-gun","有田・湯浅・日高エリア","グルメ,ショッピング","N","34.03249","135.178665"
"126","松源　海南阪井店","Supermarket Matsugen Kainansakai Store","海南市阪井字佃945番地の1","945-1 Tsukuda, Sakai, Kainan-shi","和歌山市エリア","グルメ,ショッピング","N","34.160542","135.263092"
"127","松源　西浜店","Supermarket Matsugen  Nishihama Store","和歌山市西浜1026番地の1","1026-1 Nishihama, Wakayama-shi","和歌山市エリア","グルメ,ショッピング","N","34.200897","135.154404"
"128","松源　岩出店","Supermarket Matsugen Iwade Store","岩出市大町58番地の1","58-1 Omachi, Iwade-shi","和歌山市エリア","グルメ,ショッピング","N","34.259743","135.320694"
"129","松源　木ノ本店","Supermarket Matsugen Kinomoto Store","和歌山市木ﾉ本395-3","395-3 Kinomoto, Wakayama-shi","和歌山市エリア","グルメ,ショッピング","N","34.260658","135.131256"
"130","松源　伏原店","Supermarket Matsugen Fushihara Store","橋本市高野口町伏原106番地","106 Fushihara, Koyaguchicho, Hashimoto-shi","高野山エリア","グルメ,ショッピング","N","34.304279","135.570908"
"131","松源　元寺店","Supermarket Matsugen Motodera Store","和歌山市元寺町5-58ｼﾃｨﾜｶﾔﾏ内","CITY! WAKAYAMA, 5-58 Motoderamachi, Wakayama-shi","和歌山市エリア","グルメ,ショッピング","N","34.239697","135.176407"
"132","松源　岩出中黒店","Supermarket Matsugen Iwadenakaguro Store","岩出市中黒546番","546 Nakakuro, Iwade-shi","和歌山市エリア","グルメ,ショッピング","N","34.265678","135.284134"
"133","松源　御坊店","Supermarket Matsugen Gobo Store","御坊市薗53番4","53-4 Sono, Gobo-shi","有田・湯浅・日高エリア","グルメ,ショッピング","N","33.894161","135.150421"
"134","松源　西庄店","Supermarket Matsugen Nishinosho Store","和歌山市西庄妙見409番1","409-1 Myoken, Nishinosho, Wakayama-shi","和歌山市エリア","グルメ,ショッピング","N","34.258095","135.114365"
"135","松源　内原店","Supremarket Matsugen Uchihara Store","和歌山市内原763番1","763-1 Uchihara, Wakayama-shi","和歌山市エリア","グルメ,ショッピング","N","34.173759","135.195404"
"136","松源　和歌山インター店","Matsugen Supermarket Matsugen Wakayama inter Store","和歌山市田屋138番地","138 Taya, Wakayama-shi","和歌山市エリア","グルメ,ショッピング","N","34.258495","135.22551"
"137","松源　橋本林間店","Supermarket Matsugen Hashimoto-rinkan Store","橋本市三石台1丁目2番1号","1-2-1 Mitsuishidai, Hashimoto-shi","高野山エリア","グルメ,ショッピング","N","34.357407","135.603668"
"138","中国料理　可口楽","Chinese restaurant KaKura","和歌山市美園町5-4-9","5-4-9 Misonocho, Wakayama-shi","和歌山市エリア","グルメ","L","34.229626","135.190506"
"139","本町商店街","Honmachi Shopping street","和歌山市本町2-10","2-10 Honmachi, Wakayama-shi","和歌山市エリア","グルメ,ショッピング,その他","N","34.23473","135.174225"
"140","まつや食堂","Restaurant Matsuya Shokudo","和歌山市雑賀屋町東ﾉ丁64","64 Higashinocho, Saikayamachi, Wakayama-shi","和歌山市エリア","グルメ","N","34.225872","135.169571"
"141","フクちゃん","Restaurant Fukuchan","和歌山市中島185-5ｺｰﾎﾟ中島104","Corpo Nakajima Rm.104, 185-5 Nakajima, Wakayama-shi","和歌山市エリア","グルメ","N","34.207752","135.186356"
"142","ハネ馬","Haneuma, Japanese style pub","和歌山市十番丁72","72 Jubancho, Wakayama-shi","和歌山市エリア","グルメ","N","34.230759","135.17572"
"143","廣井時計店","Hiroi clock shop","和歌山市打越町1-16","1-16 Uchikoshicho, Wakayama-shi","和歌山市エリア","ショッピング","N","34.205395","135.17659"
"144","Ｋａ　ｒ　ｔｏｆｆｅｌ（かるとふぇる）","Restaurant Kartoffel","和歌山市太田2-14-9ｱｽﾞﾏ太田ﾋﾞﾙ","Azuma Oda Building, 2-14-9 Oda, Wakayama-shi","和歌山市エリア","グルメ","N","34.23214","135.195892"
"145","南海和歌山市駅　観光案内所","Tourist Information Center Nankai Wakayamashi Station","和歌山市東蔵前丁3-6","3-6 Higashikuramaecho, Wakayama-shi","和歌山市エリア","公共交通,観光スポット,その他","N","34.236134","135.166672"
"146","加太観光協会　観光案内所","Kada Tourist Association Tourist Information Center","和歌山市加太1067","1067 Kada, Wakayama-shi","和歌山市エリア","観光スポット,その他","L","34.27993","135.082779"
"147","活魚料理いなさ","Fresh Seafood Restaurant Inasa","和歌山市加太196","196 Kada, Wakayama-shi","和歌山市エリア","グルメ","N","34.274841","135.070618"
"148","大阪屋　ひいなの湯","Osakaya Hiina no Yu Ryokan","和歌山市加太142","142 Kada, Wakayama-shi","和歌山市エリア","宿泊,グルメ","L","34.274841","135.070618"
"149","巴旅館","Tomoe Ryokan","和歌山市本町3丁目8","3-8 Honmachi, Wakayama-shi","和歌山市エリア","宿泊","N","34.235439","135.174469"
"150","ホテル　ポルト・ディ・マーレ","Hotel Porto di Mare","和歌山市中47-2","47-2 Naka, Wakayama-shi","和歌山市エリア","宿泊","N","34.260715","135.144485"
"151","南海電鉄　林間田園都市駅","Nankai Electric Railway Rinkandenentoshi Sta. (NK75)","橋本市三石台1-1-1","1-1-1 Mitsuishidai, Hashimoto-shi","高野山エリア","公共交通","L","34.355465","135.602783"
"152","南海電鉄　橋本駅","Nankai Electric Railway Hashimoto Sta. (NK77)","橋本市古佐田1-4-51","1-4-51 Kosada, Hashimoto-shi","高野山エリア","公共交通","L","34.318375","135.616104"
"153","南海電鉄　極楽橋駅","Nankai Electric Railway Gokurakubashi Sta. (NK86)","伊都郡高野町大字高野山国有林第8林班","8 Koyasankokuyurin, Koya-cho, Ito-gun","高野山エリア","公共交通","L","34.215015","135.587585"
"154","南海電鉄　和歌山市駅","Nankai Electric Railway Wakayamashi Sta. (NK45)","和歌山市東蔵前丁3-6","3-6 Higashikuramaecho, Wakayama-shi","和歌山市エリア","公共交通","L","34.236134","135.166672"
"155","炭火やき鳥鳥々呂","Restaurant Sumibi Yakitori Totoro","和歌山市太田4-3-5川端ﾋﾞﾙ1F8号","Kawabata Building 1F Rm.8, 4-3-5 Oda, Wakayama-shi","和歌山市エリア","グルメ","N","34.22887","135.195099"
"156","鳥々呂　福島店","Restaurant Totoro Fukushima","和歌山市福島487ﾙﾐﾉｰｿﾞふるい2F","Luminozo Furui 2F, 487 Fukushima, Wakayama-shi","和歌山市エリア","グルメ","N","34.248566","135.168396"
"157","三八波","Restaurant Mihanami","和歌山市黒田2-1-25","2-1-25 Kuroda, Wakayama-shi","和歌山市エリア","グルメ","N","34.233055","135.194534"
"158","炭火焼肉　なのはな","Sumibi Yakiniku Restaurant Nanohana","和歌山市太田1-12-31","1-12-31 Oda, Wakayama-shi","和歌山市エリア","グルメ","L","34.231194","135.193817"
"159","デリシャス廣岡　吉備店","Supermarket Delicious Hirooka Kibi Store","有田郡有田川町天満568","568 Tenma, Aridagawacho, Arida-gun","有田・湯浅・日高エリア","グルメ,ショッピング","N","34.061443","135.207932"
"160","デリシャス廣岡　保田店","Supermarket Delicious Hirooka Yasuda Store","有田市辻堂821","821 Tsujido, Arida-shi","有田・湯浅・日高エリア","グルメ,ショッピング","N","34.076836","135.141861"
"161","焼肉三国一　湯浅店","Yakiniku Restaurant Sangokuichi Yuasa Restaurant","有田郡湯浅町湯浅1590","1590 Yuasa, Yuasacho, Arida-gun","有田・湯浅・日高エリア","グルメ","N","34.03606","135.180557"
"162","焼肉三国一　黒田店","Yakiniku Restaurant Sangokuichi Kuroda Restaurant","和歌山市黒田249","249 Kuroda, Wakayama-shi","和歌山市エリア","グルメ","N","34.238064","135.199356"
"163","焼肉三国一　梶取店","Yakiniku Restaurant Sangokuichi Kandori Restaurant","和歌山市梶取162-1","162-1 Kandori, Wakayama-shi","和歌山市エリア","グルメ","N","34.251244","135.156067"
"164","焼肉三国一　海南店","Yakiniku Restaurant Sangokuichi Kainan Restarurant","海南市大野中621-1","621-1 Ononaka, Kainan-shi","和歌山市エリア","グルメ","N","34.153866","135.224228"
"165","エバグリーン吉備店","Supermarket Ever Green Kibi Store","有田郡有田川町天満562","562 Tenma, Aridagawacho, Arida-gun","有田・湯浅・日高エリア","グルメ,ショッピング","N","34.061443","135.207932"
"166","エバグリーン有田店","Supermarket Ever Green Arida Store","有田市宮崎町110-1","110-1 Miyazakicho, Arida-shi","有田・湯浅・日高エリア","グルメ,ショッピング","N","34.077488","135.103058"
"167","エバグリーン広瀬店","Supermaarket Ever Green Hirose Store","和歌山市元町奉行丁2丁目66","2-66 Bugyocho, Motomachi, Wakayama-shi","和歌山市エリア","グルメ,ショッピング","N","34.224167","135.184128"
"168","エバグリーン梶取店","Supermarket Ever Green Kandori Store","和歌山市梶取162-1","162-1 Kandori, Wakayama-shi","和歌山市エリア","グルメ,ショッピング","N","34.251244","135.156067"
"169","エバグリーン高野口店","Supermarket Evergreen Koyaguchi Store","橋本市高野口町名古曽940-1","940-1 Nagoso, Koyaguchicho, Hashimoto-shi","高野山エリア","グルメ,ショッピング","N","34.302212","135.561432"
"170","スーパーエバグリーン宮前店","Supermarket Ever Green Miyamae Store","和歌山市中島576-3","576-3 Nakajima, Wakayama-shi","和歌山市エリア","グルメ,ショッピング","N","34.215523","135.194275"
"171","エバグリーン岩出中迫店","Supermarket Ever Green Iwadenakasako Store","岩出市中迫118-3","118-3 Nakabusa, Iwade-shi","和歌山市エリア","グルメ,ショッピング","N","34.262299","135.31781"
"172","スーパーエバグリーン湯浅店","Supermarket Ever Green Yuasa Store","有田郡湯浅町湯浅1792","1792 Yuasa, Yuasacho, Arida-gun","有田・湯浅・日高エリア","グルメ,ショッピング","N","34.035324","135.176682"
"173","エバグリーン海南店","Supermarket Ever Green Kainan Store","海南市重根35","35 Shikone, Kainan-shi","和歌山市エリア","グルメ,ショッピング","N","34.154411","135.239456"
"174","エバグリーン田辺元町店","Supermarket Ever Green Tanabemotomachi Store","田辺市上の山2丁目17-22","2-17-22 Uenoyama, Tanabe-shi","熊野エリア","グルメ,ショッピング","N","33.734276","135.363846"
"175","エバグリーン御坊店","Supermarket Ever Green  Gobo Store","御坊市湯川町財部840-1","840-1 Takara, Yukawacho, Gobo-shi","有田・湯浅・日高エリア","グルメ,ショッピング","N","33.900803","135.159271"
"176","エバグリーン西庄店","Supermarket Ever Green Nishinosho Store","和歌山市西庄765-1","765-1 Nishinosho, Wakayama-shi","和歌山市エリア","グルメ,ショッピング","N","34.256214","135.116119"
"177","エバグリーン串本店","Supermarket Ever　Green Kushimoto Store","東牟婁郡串本町串本字小森生1758","1758 Kushimoto Kushimotocho, Higashimuro-gun","白浜・串本エリア","グルメ,ショッピング","N","33.469734","135.780426"
"178","エバグリーン宮街道店","Supermarket Ever Green Miyakaido Store","和歌山市秋月227-2","227-2 Akizuki, Wakayama-shi","和歌山市エリア","グルメ,ショッピング","N","34.23119","135.204163"
"179","スーパーエバグリーン四ヶ郷店","Supermarket Ever Green Shikago Store","和歌山市加納295-1","295-1 Kano, Wakayama-shi","和歌山市エリア","グルメ,ショッピング","N","34.243557","135.205002"
"180","エバグリーン紀三井寺店","Supermarket Ever Green Kimiidera Store","和歌山市布引743-2","743-2 Nunohiki, Wakayama-shi","和歌山市エリア","グルメ,ショッピング","N","34.175812","135.185043"
"181","エバグリーン新中島店","Supermarket Ever Green Shinnakajima Store","和歌山市新中島124","124 Shinnakajima, Wakayama-shi","和歌山市エリア","グルメ,ショッピング","N","34.214802","135.196808"
"182","スーパーエバグリーン和歌山北インター店","Supermarket Ever Green Wakayama Kita Interchange Store","和歌山市直川274-1","274-1 Nougawa, Wakayama-shi","和歌山市エリア","グルメ,ショッピング","N","34.26495","135.216431"
"183","エバグリーンかつらぎ店","Supermarket Ever Green Katsuragi Store","伊都郡かつらぎ町佐野905-1","905-1 Saya, Katsuragicho, Ito-gun","高野山エリア","グルメ,ショッピング","N","34.290627","135.485382"
"184","スーパーエバグリーン上富田店","Supermarket Ever Green Kamitonda store","西牟婁郡上富田町生馬564-1","564-1 Ikuma, Kamitondacho, Nishimuro-gun","白浜・串本エリア","グルメ,ショッピング","N","33.691849","135.457611"
"185","スーパーエバグリーン福島店","Supermarket Ever Green Fukushima Store","和歌山市福島89-1","89-1 Fukushima, Wakayama-shi","和歌山市エリア","グルメ,ショッピング","N","34.250607","135.160706"
"186","スーパーエバグリーン岩出高塚店","Supermarket Ever Green Iwadetakatsuka Store","岩出市高塚188-1","188-1 Takatsuka, Iwade-shi","和歌山市エリア","グルメ,ショッピング","N","34.257111","135.323364"
"187","エイトマートン湯浅吉川店","Supermarket Eight Marton Yuasayoshikawa Store","有田郡湯浅町大字吉川70","70 Yoshikawa, Yuasacho, Arida-gun","有田・湯浅・日高エリア","グルメ,ショッピング","N","34.051296","135.187881"
"188","エイトマートン有田川土生店","Supermarket Eight Marton Aridagawa habu Store","有田郡有田川町大字土生80-3","80-3 Habu, Aridagawacho, Arida-gun","有田・湯浅・日高エリア","グルメ,ショッピング","N","34.055527","135.206604"
"189","お菓子の工房アン　内原本店","Confectionary Okashino Kobo Ann Uchiharahonten Store","和歌山市内原915","915 Uchihara, Wakayama-shi","和歌山市エリア","グルメ,ショッピング","N","34.17255","135.192581"
"190","お菓子の工房アン　大谷店","Confectionary Okashino Kobo Ann Otani Shop","和歌山市大谷398-1","398-1 Otani, Wakayama-shi","和歌山市エリア","グルメ,ショッピング","N","34.260208","135.179596"
"191","ぼへみあん","Cafe Bohemian","和歌山市本町1-15","1-15 Honmachi, Wakayama-shi","和歌山市エリア","グルメ","N","34.233494","135.174164"
"192","東口食堂","Restaurant Higashikuchi Shokudo","和歌山市太田1-14-7","1-14 Oda, Wakayama-shi","和歌山市エリア","グルメ","L","34.231888","135.192566"
"193","あたらし屋","Atarashiya Ryokan, fresh fish cuisine","和歌山市加太205","205 Kada, Wakayama-shi","和歌山市エリア","宿泊,グルメ","N","34.274841","135.070618"
"194","フォルテワジマ第４駐車場","FORTE WAJIMA, Department Store, Parking 4","和歌山市本町2-15","2-15 Honmachi, Wakayama-shi","和歌山市エリア","その他","N","34.234436","135.174667"
"195","Ｔ－ＬＡＢＯ","Rental Space T-Labo","和歌山市美園町5-4-2","5-4-2 Misonocho, Wakayama-shi","和歌山市エリア","その他","L","34.229626","135.190506"
"196","宇都宮病院","Utsunomiya Hospital","和歌山市鳴神505-4","505-4 Narukami, Wakayama-shi","和歌山市エリア","その他","N","34.227417","135.214447"
"197","和歌山インドアテニスクラブ","Wakayama Indoor Tennis Club","和歌山市園部1070","1070 Sonobe, Wakayama-shi","和歌山市エリア","その他","N","34.264305","135.194519"
"198","テニスセンター和歌山西浜校","Tennis Center Wakayama Nishihamako Tennis school","和歌山市西浜903-1","903-1 Nishihama, Wakayama-shi","和歌山市エリア","その他","N","34.200897","135.154404"
"199","テニスセンター和歌山岩出校","Tennis Center Wakayama Iwadeko Tennis school","岩出市中島820-3","820-3 Nakajima, Iwade-shi","和歌山市エリア","その他","N","34.261723","135.296524"
"200","スポーツアドヴァンス岩出"," Sports Club Advance Iwade","岩出市金池71-2","71-2 Kanaike, Iwade-shi","和歌山市エリア","その他","L","34.273811","135.289948"
"201","スポーツアドヴァンスかつらぎ","Sports Advance Katsuragi Sports Club","紀の川市藤崎279-1","279-1 Fujisaki, Kinokawa-shi","和歌山市エリア","その他","L","34.270073","135.426712"
"202","スポーツアドヴァンスむそた","Sports Advance Musota Sports Club","和歌山市六十谷78-5","78-5 Musota, Wakayama-shi","和歌山市エリア","その他","L","34.259914","135.200912"
"203","慶風高等学校","Keifu High School","海草郡紀美野町田64","64 Ta, Kiminocho, Kaiso-gun","和歌山市エリア","その他","N","34.139992","135.415924"
"204","民宿松林","Minshuku Matsubayashi ","有田市初島町浜1769-1","1769-1 Hama, Hatsushimacho, Arida-shi","有田・湯浅・日高エリア","宿泊,グルメ","N","34.101265","135.114044"
"205","旬海","Shunkai Japanese Restaurant","和歌山市和歌浦東2-9-46","2-9-46 Wakaurahigashi, Wakayama-shi","和歌山市エリア","グルメ","N","34.192039","135.17572"
"206","八十八家","Hachijuhachiya Restaurant","田辺市稲成町270-1-2","270-1-2 Inaricho, Tanabe-shi","熊野エリア","グルメ","L","33.741989","135.374359"
"207","民宿せせらぎ","Minshuku Seseragi ","田辺市龍神村湯ﾉ又577-2","277-2 Ryujinmurayunomata, Tanabe-shi","熊野エリア","宿泊","N","33.946087","135.557114"
"208","たまゆらの里","Tamayuranosato Resort Cottage","紀美野町長谷宮705","705 Hasemiya, Kiminocho","和歌山市エリア","宿泊,グルメ","N","34.180313","135.479385"
"209","和歌山加太温泉　加太海月","Seaside Hotel Kada Kaigetsu","和歌山市加太1905","1905 Kada, Wakayama-shi","和歌山市エリア","宿泊","L","34.268482","135.071014"
"210","海南市物産観光センター","Kainan city Souvenir Tourism center","海南市名高51-2JR海南駅構内","JR Kainan station, 51-2 Nataka, Kainan-shi","和歌山市エリア","グルメ,ショッピング,観光スポット,その他","N","34.154312","135.212616"
"211","ファーストガーデン","Cafe First Garden","海南市名高532-14","532-14 Nataka, Kainan-shi","和歌山市エリア","グルメ","L","34.154114","135.211884"
"212","黒牛茶屋","Kuroushi-jyaya Japanese Sake bar and shop","海南市黒江846","846 Kuroe, Kainan-shi","和歌山市エリア","グルメ,ショッピング,観光スポット","L","34.166534","135.205688"
"213","黒江ぬりもの館","Cafe Kuroe Nurimonokan","海南市黒江680","680 Kuroe, Kainan-shi","和歌山市エリア","ショッピング,観光スポット","N","34.161564","135.205521"
"214","料亭　美登利","Midori Japanese restaurant","海南市船尾185","185 Funoo, Kainan-shi","和歌山市エリア","グルメ","N","34.157692","135.207504"
"215","ライズゴルフセンター","Rise Golf Center","海南市大野中1122","1122 Ononaka, Kainan-shi","和歌山市エリア","その他","N","34.159344","135.235245"
"216","紀州漆器協同組合","Kishu lacquerware traditional industry house","海南市船尾222","222 Funoo, Kainan-shi","和歌山市エリア","ショッピング,観光スポット","N","34.160366","135.203598"
"217","池庄漆器店","Ikesho Shikki Lacquer Ware Shop","海南市黒江692","692 Kuroe, Kainan-shi","和歌山市エリア","ショッピング","N","34.161564","135.205521"
"218","とれたて広場"," Farmer's market Toretate Hiroba","海南市重根418","418 Shikone, Kainan-shi","和歌山市エリア","ショッピング","N","34.153923","135.245331"
"219","野上八幡宮","Nokami Hachimangu Shrine","海草郡紀美野町小畑625","625 Shobata, Kiminocho, Kaiso-gun","和歌山市エリア","観光スポット,その他","L","34.162777","135.294006"
"220","海南駅前一丁目商店街","JR　Kainan Station Shopping street ","海南市名高555-3","555-3 Nataka, Kainan-shi","和歌山市エリア","グルメ,ショッピング,公共交通,その他","N","34.154114","135.214783"
"221","国木原ゴルフ倶楽部","Kunikihara Golf Club","海草郡紀美野町国木原551-14","551-14 Kunikibara, Kiminocho, Kaiso-gun","和歌山市エリア","その他","N","34.18996","135.336731"
"222","セミナーハウス未来塾","Seminar House Miraijuku, lodging facility","海草郡紀美野町田25","25 Ta, Kiminocho, Kaiso-gun","和歌山市エリア","宿泊","L","34.139992","135.415924"
"223","法然寺","Honenji temple","海南市沖野々553","553 Okinono, Kainan-shi","和歌山市エリア","観光スポット,その他","L","34.161488","135.277222"
"224","ド－シェル","Bakery Terrace Dooshel","海草郡紀美野町釜滝417-3","417-3 Kamataki, Kiminocho, Kaiso-gun","和歌山市エリア","グルメ","L","34.166451","135.348511"
"225","藤の森不動温泉だるま湯","Fujinomorifudo Onsen Darumayu","海草郡紀美野町滝ﾉ川73","73 Takinogawa, Kiminocho, Kaiso-gun","和歌山市エリア","宿泊,グルメ,その他","L","34.133507","135.431992"
"226","キミノーカ","Gelato Shop Kiminoka","海草郡紀美野町三尾川785-3","785-3 Miogawa, Kiminocho, Kaiso-gun","和歌山市エリア","グルメ","L","34.139198","135.373062"
"227","釜滝薬師金剛寺","Kamataki Yakushi Kongoji temple","海草郡紀美野町釜滝120","120 Kamataki, Kiminocho, Kaiso-gun","和歌山市エリア","観光スポット,その他","L","34.166451","135.348511"
"228","安養寺","Anyo-ji Temple","海南市名高420","420 Nataka, Kainan-shi","和歌山市エリア","観光スポット,その他","N","34.150791","135.214386"
"229","海月旅館","Kaigetsu Ryokan ","海南市船尾378","378 Funo, Kainan-shi","和歌山市エリア","宿泊","L","34.15852","135.196228"
"230","コ－ヒ－館　熊野路","Coffee House Kumanoji","紀の川市貴志川町神戸177-3","177-3 Kodo, Kishigawacho, Kinokawa-shi","和歌山市エリア","グルメ","N","34.218372","135.316391"
"231","大池荘","Oikeso Inn","紀の川市貴志川町長山1287-1","1287-1 Nagayama, Kishigawacho, Kinokawa-shi","和歌山市エリア","宿泊","N","34.209251","135.292709"
"232","アミューズフレンチレストラン","Amuse French Restaurant ","岩出市中黒432‐7","432-7 Nakakuro, Iwade-shi","和歌山市エリア","グルメ","L","34.271229","135.286606"
"233","ファーマーズマーケット　めっけもん広場","Farmer's market Mekkemon-hiroba","紀の川市豊田56-3","56-3 Toyoda, Kinokawa-shi","和歌山市エリア","グルメ,ショッピング","N","34.281612","135.353256"
"234","粉河寺","Kokawadera Temple","紀の川市粉河2787","2787 Kokawa, Kinokawa-shi","和歌山市エリア","観光スポット,その他","N","34.276337","135.406616"
"235","焼肉の牛太本陣岩出店","Yakiniku restaurant　Gyuta Honjin Iwade","岩出市西国分725-1","725-1 Nishikokubu, Iwade-shi","和歌山市エリア","グルメ","N","34.262955","135.334824"
"236","タウンコーヒー","Town Coffee","岩出市荊本235","235 Ibaramoto, Iwade-shi","和歌山市エリア","ショッピング","N","34.263084","135.307602"
"237","粉河産土神社","Kokawaubusuna Jinja Shrine ","紀の川市粉河2788","2788 Kokawa, Kinokawa-shi","和歌山市エリア","観光スポット,その他","N","34.276337","135.406616"
"238","稲穂会病院","Inahokai Hospital","紀の川市粉河756‐3","756-3 Kokawa, Kinokawa-shi","和歌山市エリア","その他","N","34.267307","135.405624"
"239","鶏心（チキンハ－ト）ていは","Restaurant Chiken Heart Teiha","岩出市西野25-3","25-3 Nishino, Iwade-shi","和歌山市エリア","グルメ","N","34.258865","135.306915"
"240","観音寺","Kannonji temple","紀の川市別所58","58 Bessho, Kinokawa-shi","和歌山市エリア","観光スポット,その他","N","34.27002","135.390564"
"241","紀北印刷","Kihoku Printing","紀の川市西大井133-6","133-6 Nishioi, Kinokawa-shi","和歌山市エリア","その他","N","34.267521","135.361816"
"242","Ｔ－ＮＡＲＵＳＥ（ケーキパーラーナルセ）","T-NARUSE Cake Parlor","岩出市清水363","363 Shimizu, Iwade-shi","和歌山市エリア","グルメ,ショッピング","L","34.254509","135.316833"
"243","裁ち寄り処","Hashimoto city regional industry promotion center Tachiyori-dokoro","橋本市高野口町名倉288番地地場産業振興ｾﾝﾀｰ","Jiba Sangyo Shinko Center, 288 Nagura, Koyaguchicho, Hashimoto-shi","高野山エリア","ショッピング,その他","L","34.304718","135.554977"
"244","はしもと広域観光案内所","Tourist information center of Hashimoto","橋本市古佐田1-5-9橋本市観光協会","Hashimoto City Tourist Association, 1-5-9 Kosada, Hashimoto-shi","高野山エリア","公共交通,観光スポット,その他","L","34.317413","135.614075"
"245","みそや呉服店　店舗","Misoya draper's head office","橋本市賢堂1114-1","1114-1 Kashikodo, Hashimoto-shi","高野山エリア","ショッピング","L","34.311321","135.61293"
"246","みそや呉服店　本店","Misoya draper's flagship store","橋本市橋本1-2-14","1-2-14 Hashimoto, Hashimoto-shi","高野山エリア","ショッピング","L","34.315651","135.611923"
"247","ｂｅａｒｅ　ｂｙ　ＭｉＳＯＹＡ","Kimono Shop Beare by Misoya","橋本市橋本1-2-14","1-2-14 Hashimoto, Hashimoto-shi","高野山エリア","ショッピング","L","34.315651","135.611923"
"248","かつらぎ温泉　八風の湯","Katsuragi onsen Happuno-yu","伊都郡かつらぎ町佐野702","702 Saya, Katsuragicho, Ito-gun","高野山エリア","宿泊,グルメ,その他","L","34.293186","135.48436"
"249","天の里","Mountain Villa Amanosato","伊都郡かつらぎ町天野1620","1620 Amano, Katsuragicho, Ido-gun","高野山エリア","宿泊,グルメ","N","34.29631","135.50351"
"250","宝善院","Hozenin temple (shukubo)","伊都郡高野町高野山568","568 Koyasan, Koyacho, Ido-gun","高野山エリア","宿泊,グルメ","L","34.215015","135.587585"
"251","西南院","Sainanin temple (shukubo)","伊都郡高野町高野山249","249 Koyasan, Koyacho, Ido-gun","高野山エリア","宿泊,グルメ","L","34.206329","135.574341"
"252","おみやげ・お茶処　西利","Nishiri restaurant and store","伊都郡高野町高野山784","784 Koyasan, Koyacho, Ito-gun","高野山エリア","グルメ,ショッピング","N","34.21299","135.58522"
"253","天然温泉　ゆの里","Yunosato natural Onsen","橋本市神野々898","898 Konono, Hashimoto-shi","高野山エリア","グルメ,その他","N","34.306259","135.578506"
"254","金剛三昧院","Kongo Zanmaiin temple(shukubo)","伊都郡高野町高野山425","425 Koyasan, Koyacho, Ido-gun","高野山エリア","宿泊,グルメ","N","34.209164","135.586823"
"255","コスメはうす　ぶどう園","Cosme House Budouen Cosmetics","伊都郡かつらぎ町中飯降1661","1661 Nakaiburi, Katsuragicho, Ito-gun","高野山エリア","ショッピング,その他","N","34.30349","135.536377"
"256","河内屋石油","Kawachiya Sekiyu Gas station","伊都郡高野町高野山388","388 Koyasan, Koya-cho, Ito-gun","高野山エリア","その他","N","34.21299","135.58522"
"257","そば処　幸村庵","Soba Restaurant Yukimuraan","伊都郡九度山町九度山1404","1404 Kudoyama, Kudoyamacho, Ido-gun","高野山エリア","グルメ","N","34.290726","135.559509"
"258","柿の葉すし九和楽","Kakinohasushi Kuwakura Restaurant","伊都郡九度山町九度山1353","1353 Kudoyama, Kudoyamacho, Ito-gun","高野山エリア","グルメ,ショッピング","N","34.290051","135.561111"
"259","プティ・アシェット","Petit Assiette Confectionery Store","橋本市隅田町垂井511-4","511-4 Tarui, Sudacho, Hashimoto-shi","高野山エリア","グルメ,ショッピング","N","34.335316","135.646881"
"260","松本商店","Matsumoto Shoten Store","伊都郡九度山町九度山1569","1569 Kudoyama, Kudoyamacho, Ido-gun","高野山エリア","ショッピング","N","34.295807","135.564651"
"261","日本エコショップ　Fox橋本店","Nihon Eco Shop store Fox, Hashimoto ","橋本市隅田町芋生7-5","7-5 Imo, Sumidacho, Hashimoto-shi","高野山エリア","ショッピング","N","34.326275","135.649643"
"262","旅館　高野館","Japanese Style Inn Ryokan Koyakan","伊都郡高野町高野山445","445 Koyasan, Koyacho, Ido-gun","高野山エリア","宿泊","L","34.209164","135.586823"
"263","丹生管省符神社","Niukanshobu-jinja shrine","伊都郡九度山町慈尊院835","835 Jisonin, Kudoyamacho, Ito-gun","高野山エリア","観光スポット,その他","N","34.29425","135.549591"
"264","丹生都比売神社","Nyutsuhime-Jinja Shrine ","伊都郡かつらぎ町上天野230","230 Kamiamano, Katsuragicho, Ito-gun","高野山エリア","観光スポット,その他","N","34.26009","135.51918"
"265","やっちょん広場","Yacchon Hiroba Farmer's Market","橋本市岸上522-1","522-1 Kishigami, Hashimoto-shi","高野山エリア","グルメ,ショッピング","N","34.311207","135.587631"
"266","真田いこい茶屋","Tea House Sanada Ikoi Chaya","伊都郡九度山町九度山1722-1","1722-1 Kudoyama, Kudoyamacho, Ito-gun","高野山エリア","グルメ","N","34.287937","135.562866"
"267","宝城院","Hojoin temple (shukubo)","伊都郡高野町高野山156","156 Koyasan, Koyacho, Ito-gun","高野山エリア","宿泊,グルメ","N","34.220783","135.576935"
"268","遍照尊院","Temple Lodging Henjoson-in","伊都郡高野町高野山303","303 Koyasan, Koyacho, Ito-gun","高野山エリア","宿泊,グルメ","N","34.206329","135.574341"
"269","総持院","Sojiin temple (shukubo)","伊都郡高野町高野山143","143 Koyasan, Koyacho, Ito-gun","高野山エリア","宿泊,グルメ","N","34.220783","135.576935"
"270","パン工房　Ａｒｃｔｉｃ","Bakery Pan Kobo Arctic","橋本市東家6-1-3","6-1-3 Toge, Hashimoto-shi","高野山エリア","グルメ,ショッピング","L","34.313797","135.605438"
"271","小堀南岳堂","Kobori Nangakudo Book Store","伊都郡高野町高野山781","781 Koyasan, Koyacho, Ito-gun","高野山エリア","ショッピング","L","34.21299","135.58522"
"272","岩橋化粧品店","Iwahashi Cosmetic Store","橋本市東家4-6-11","4-6-11 Toge, Hashimoto-shi","高野山エリア","ショッピング","N","34.316189","135.609467"
"273","報恩院","Houonin temple (shukubo)","伊都郡高野町高野山283","283 Koyasan,Koyacho, Ito-gun","高野山エリア","宿泊,グルメ","N","34.206329","135.574341"
"274","道の駅「柿の郷くどやま」","Roadside Station Kakinosato Kudoyama","伊都郡九度山町入郷5番5","5-5 Nyugo, Kudoyamacho, Ito-gun","高野山エリア","グルメ,ショッピング,観光スポット,その他","L","34.291832","135.552368"
"275","御菓子司さゞ波横休憩所","Rest Area next to Sazanami Confectionery Store","伊都郡高野町大字高野山797","797 Koyasan, Koyacho, Ito-gun","高野山エリア","ショッピング,その他","N","34.206329","135.574341"
"276","かつらぎ西パーキングエリア","Antenna Shop on the Down Line at Katsuragi Nishi Parking Area","伊都郡かつらぎ町笠田東1270-22","1270-22 Kasedahigashi, Katsuragicho, Ito-gun","高野山エリア","グルメ,ショッピング,観光スポット,その他","L","34.288429","135.479355"
"277","ＴＥＲＡＫＯ－ＹＡ","Tourist Information Center TERAKO-YA","伊都郡高野町高野山445","445 Koyasan, Koyacho, Ito-gun","高野山エリア","その他","L","34.209164","135.586823"
"278","ウエストコースト","Restaurant West Coast","伊都郡かつらぎ町大字笠田東108-1","108-1 Kasedahigashi, Katsuragicho, Ito-gun","高野山エリア","グルメ","L","34.289715","135.481293"
"279","わらべ","Warabe, seafood restaurant","和歌山県橋本市小原田74-9ﾊｲﾂ小原田1階","Heights Oharata Bldg. 1F, 74-9 Oharata, Hashimoto-shi","高野山エリア","グルメ","L","34.328766","135.607162"
"280","子安地蔵寺","Koyasujizo-ji Temple","橋本市菖蒲谷94","94 Syobutani, Hashimoto-shi","高野山エリア","観光スポット,その他","N","34.337437","135.58313"
"281","真明寺","Shinmyo-ji Temple","伊都郡かつらぎ町佐野318","318 Saya, Katsuragicho, Ito-gun","高野山エリア","観光スポット,その他","L","34.292419","135.482452"
"282","増福院","Temple Lodging Zofuku-in","伊都郡高野町高野山346","346 Koyasan, Koyacho, Ito-gun","高野山エリア","宿泊,グルメ","L","34.215015","135.587585"
"283","西禅院","Temple Lodging Saizen-in","伊都郡高野町高野山154","154 Koyasan, Koyacho, Ito-gun","高野山エリア","宿泊,グルメ","L","34.220783","135.576935"
"284","カメイプラザ","Kamei Plaza Gift Shop","橋本市市脇4丁目1-20","4-1-20 Ichiwaki, Hashimoto-shi","高野山エリア","ショッピング","L","34.31348","135.601273"
"285","亀井商店卸配送センター","Kamei Shoten Wholesale Delivery Center","橋本市市脇4丁目1-4","4-1-4 Ichiwaki, Hashimoto-shi","高野山エリア","ショッピング,その他","L","34.31348","135.601273"
"286","コスメティックかめい","Cosmetic shop Kamei","橋本市橋本2丁目2-14","2-2-14 Hashimoto, Hashimoto-shi","高野山エリア","ショッピング","N","34.316174","135.613541"
"287","木間暮","Kimagure Cafe and Restaurant","橋本市西畑489-1","489-1 Nishibata, Hashimoto-shi","高野山エリア","グルメ","N","34.296989","135.602951"
"288","南海りんかんバス　高野山営業所","Nankai Rinkan Bus, Koyasan Business Office","伊都郡高野町高野山国有林第8林班105-1","105-1 8th Group of National Forest, Koyasan, Koyacho, Ito-gun","高野山エリア","公共交通","N","34.215015","135.587585"
"289","大円院","Daien-in Temple","伊都郡高野町高野山594","594 Koyasan, Koyacho, Ito-gun","高野山エリア","宿泊,グルメ","N","34.219963","135.598831"
"290","二軒目飯店","Chinese Restaurant Nikenme Hanten","伊都郡かつらぎ町佐野890","890 Saya, Katsuragicho, Ito-gun","高野山エリア","グルメ","N","34.291065","135.487228"
"291","初櫻酒造","Hatsuzakura Shuzo Sake Factory","和歌山県伊都郡かつらぎ町中飯降85","85 Nakaiburi, Katsuragicho, Ito-gun","高野山エリア","ショッピング,その他","N","34.303585","135.532822"
"292","大明王院","Daimyoo-in Temple","伊都郡高野町大字高野山482","482 Koyasan, Koyacho, Ito-gun","高野山エリア","宿泊,グルメ","N","34.201385","135.600281"
"293","一喜食堂","Ikki Dining","有田郡湯浅町吉川64-3","64-3 Yoshikawa, Yuasacho, Arida-gun","有田・湯浅・日高エリア","グルメ","L","34.047024","135.187103"
"294","すはらシーサイドハウス","Suhara Seaside House Boat Rental","有田郡湯浅町栖原966-1","966-1 Suhara, Yuasacho, Arida-gun","有田・湯浅・日高エリア","観光スポット,その他","L","34.041801","135.164658"
"295","貴望","Kibo Guest House","有田郡湯浅町大字田57-9","57-9 Yuasacho, Arida-gun","有田・湯浅・日高エリア","宿泊","N","34.054569","135.148376"
"296","紀州路ありだ","Kishuji Arida General Store","有田郡有田川町熊井674-3","674-3 Kumai, Aridagawacho, Arida-gun","有田・湯浅・日高エリア","グルメ,ショッピング","N","34.042278","135.195724"
"297","焼肉　森谷","Yakiniku Restaurant Moritani","有田郡有田川町庄322-1","322-1 Sho, Aridagawacho, Aridaga-gun","有田・湯浅・日高エリア","グルメ","L","34.065495","135.234589"
"298","あさぎり","Lodging and Experience Facility Asagiri","有田郡有田川町大字清水1225-1","1225-1 Shimizu, Aridagawacho, Arida-gun","有田・湯浅・日高エリア","宿泊,グルメ,その他","N","34.085457","135.430542"
"299","麺処むらなか","Mendokoro Muranaka noodle restaurant","有田郡広川町大字唐尾213‐5","213-5 Ooazakaro, Hirogawacho, Arida-gun","有田・湯浅・日高エリア","グルメ","N","34.00354","135.145996"
"300","角長","Kadocho soy sauce shop","有田郡湯浅町湯浅7","7 Yuasa, Yuasacho, Aida-gun","有田・湯浅・日高エリア","ショッピング,観光スポット,その他","N","34.037365","135.174088"
"301","カフェアンドレストバグダッド","Cafe and Rest Bagdad","有田郡有田川町大字修理川417","417 Surigawa, Aridagawacho, Arida-gun","有田・湯浅・日高エリア","グルメ","N","34.032833","135.287109"
"302","北町茶屋いっぷく","Kitamachichaya Ippuku restaurant","有田郡湯浅町湯浅23","23 Yuasacho, Arida-gun","有田・湯浅・日高エリア","グルメ","L","34.035324","135.176682"
"303","国民宿舎　くろ潮","Kuroshio Hotel","有田市宮崎町1562-2","1562-2 Miyazakicho, Arida-shi","有田・湯浅・日高エリア","宿泊","L","34.077488","135.103058"
"304","レスト喫茶　ドンキー","Coffee Restaurant Donkey","有田郡湯浅町湯浅1045-1","1045-1 Yuasa, Yuasacho, Arida-gun","有田・湯浅・日高エリア","グルメ","L","34.033665","135.180099"
"305","マルキ食堂","Maruki Shokudo restaurant","有田市箕島897-1","897-1 Minoshima, Arida-shi","有田・湯浅・日高エリア","グルメ","L","34.086044","135.124298"
"306","喜多亭","Kitatei, French restaurant","有田市初島町里1933-8","1933-8 Sato, Hatsushimacho, Arida-shi","有田・湯浅・日高エリア","グルメ","N","34.096527","135.115463"
"307","美よし荘旅館","Miyoshiso Ryokan","有田郡湯浅町別所166-1","166-1 Bessho, Yuasacho, Arida-gun","有田・湯浅・日高エリア","宿泊","N","34.029942","135.182388"
"308","民宿　波満の家","Hamanoie guesthouse","日高郡日高町方杭41","41 Katakui, Hidakacho, Hidaka-gun","有田・湯浅・日高エリア","宿泊","N","33.939091","135.087326"
"309","ロッジ・クール","Lodge Kool Inn","日高郡日高川町高津尾908","908 Takatsuo, Hidakagawacho, Hidaka-gun","有田・湯浅・日高エリア","宿泊","L","33.964417","135.288818"
"310","丸仁商店","Maruni Shoten store","御坊市湯川町小松原410-1","410-1 Komatsubara, Yukawacho, Gobo-shi","有田・湯浅・日高エリア","ショッピング,その他","L","33.907513","135.157913"
"311","イタリア料理ＢＡＭＢＵ（バンブー）","Italian Cuisine Bambu","御坊市湯川町 財部664-8","664-8 Takara, Yukawacho, Gobo-shi","有田・湯浅・日高エリア","グルメ","L","33.898533","135.153198"
"312","民宿　はまよし","Hamayoshi guesthouse","日高郡日高町志賀3960-1","3960-1 Shiga, Hidakacho, Hidaka-gun","有田・湯浅・日高エリア","宿泊","L","33.924335","135.110855"
"313","ビジネスホテル　紀の国","Business Hotel Kinokuni","御坊市湯川町小松原463-1","463-1 Komatsubara, Yukawacho, Gobo-shi","有田・湯浅・日高エリア","宿泊","L","33.90564","135.155975"
"314","民宿　シーサイド産湯","Seaside Ubuyu guesthouse","日高郡日高町産湯122","122 Ubuyu, Hidakacho, Hidaka-gun","有田・湯浅・日高エリア","宿泊,グルメ","N","33.912647","135.084717"
"315","白崎シーサイドハイツ白崎荘","Shirasaki Seaside Heights Shirasaki Manor","日高郡由良町大引948-5","948-5 Obiki, Yuracho, Hidaka-gun","有田・湯浅・日高エリア","宿泊","N","33.968487","135.087265"
"316","喫茶みはる","Kissa Miharu Cafe","日高郡美浜町大字田井566-1","566-1 Tai, Mihamacho, Hidaka-gun","有田・湯浅・日高エリア","グルメ","L","33.887928","135.151215"
"317","観光農園ひだか","Tourist Farm Hidaka","御坊市名田町上野1336-2","1336-2 Ueno, Nadacho, Gobo-shi","有田・湯浅・日高エリア","グルメ,観光スポット,その他","N","33.831547","135.181458"
"318","野天風呂宝の湯","Notenburo Spa Takaranoyu","御坊市湯川町財部1118-1","1118-1 Takara, Yukawacho, Gobo-shi","有田・湯浅・日高エリア","グルメ,その他","N","33.90078","135.163452"
"319","民宿　リッチ","Minshuku Rich","日高郡みなべ町植田942-1","942-1 Haneta, Minabecho, Hidaka-gun","有田・湯浅・日高エリア","宿泊","L","33.771832","135.321808"
"320","朝日楼","Asahiro, seafood restaurant","日高郡みなべ町梅香丘1589-2","1589-2 Umegaoka, Minabecho, Hidaka-gun","有田・湯浅・日高エリア","宿泊","L","33.771832","135.321808"
"321","錦花堂","Kinkado Japanese confectionery store","日高郡由良町里1356","1356 Sato, Yuracho, Hidaka-gun","有田・湯浅・日高エリア","グルメ,ショッピング","N","33.960075","135.118607"
"322","伊藤化粧品店","Ito Cosmetics store","日高郡みなべ町北道221","221 Kitado, Minabecho, Hidaka-gun","有田・湯浅・日高エリア","ショッピング","N","33.769127","135.320679"
"323","紀州鉄道　紀伊御坊駅","Kishu Railway Kiigobo Station","御坊市薗275","275 Sono, Gobo-shi","有田・湯浅・日高エリア","公共交通","N","33.893944","135.154099"
"324","往生寺","Oujyouji temple","御坊市湯川町財部412","412 Takara, Yukawacho, Gobo-shi","有田・湯浅・日高エリア","観光スポット,その他","N","33.900505","135.151474"
"325","カフェドマンマ","Cafe De Mamma Restaurant","日高郡みなべ町埴田1590-40","1229 Oshine, Minabecho, Hidaka-gun","有田・湯浅・日高エリア","グルメ","N","33.757042","135.325348"
"326","岩本食品","Iwamoto Shokuhin Plum Store","日高郡みなべ町晩稲1187","1187 Oshine, Minabecho, Hodaka-gun","有田・湯浅・日高エリア","ショッピング","N","33.786678","135.337112"
"327","お宿　喜作","Kisaku Japanese Inn","日高郡日高川町平川894-1","894-1 Hyugawa, Hidakagawacho, Hidaka-gun","有田・湯浅・日高エリア","宿泊","L","33.937645","135.236298"
"328","わかば薬局","Wakaba Pharmacy","御坊市湯川町財部722-5","722-5 Takara, Yukawacho, Gobou-shi","有田・湯浅・日高エリア","その他","N","33.896774","135.153336"
"329","日高町旅館民宿組合","Tourist Information Center for Japanese inns and Guesthouses in Hidakacho ","日高郡日高町高家639-4","639-4 Taie, Hidakacho, Hidaka-gun","有田・湯浅・日高エリア","その他","N","33.927994","135.137878"
"330","まちなか総合案内所　しらすな","Shirasuna tourist information center","西牟婁郡白浜町1384-57","1384-57 Shirahamacho, Nishimuro-gun","白浜・串本エリア","観光スポット,その他","L","33.669189","135.402939"
"331","タイム","Time computer service","西牟婁郡白浜町844","844 Shirahamacho, Nishimuro-gun","白浜・串本エリア","その他","L","33.669189","135.402939"
"332","サウンドスペース　フリッパー","Sound Space Flipper Karaoke house","西牟婁郡白浜町2315-3","2315-3 Shirahamacho, Nishimuro-gun","白浜・串本エリア","その他","L","33.669189","135.402939"
"333","ページボーイ美容室","Beauty Salon Page Boy","西牟婁郡白浜町693","693 Shirahamacho, Nishimuro-gun","白浜・串本エリア","その他","L","33.669189","135.402939"
"334","霧の郷　たかはら","Kirinosato Takahara Inn","田辺市中辺路町高原826","826 Takahara, Nakahechicho, Tanabe-shi","熊野エリア","宿泊,グルメ,その他","L","33.786282","135.532532"
"335","やまと","Yamato café and shop","西牟婁郡白浜町1356-2","1356-2 Shirahamacho, Nishimuro-gun","白浜・串本エリア","グルメ,ショッピング","L","33.669189","135.402939"
"336","とらや","Toraya Stationery Shop","西牟婁郡白浜町868-43","868-43 Shirahamacho, Nishimuro-gun","白浜・串本エリア","ショッピング","L","33.669189","135.402939"
"337","魚政商店","Uomasa kamaboko shop","西牟婁郡白浜町1353-1","1353-1 Shirahamacho, Nishimuro-gun","白浜・串本エリア","ショッピング","L","33.669189","135.402939"
"338","民宿アイス","Aisu guesthouse and restaurant","西牟婁郡白浜町896","896 Shirahamacho, Nishimuro-gun","白浜・串本エリア","宿泊,グルメ","L","33.669189","135.402939"
"339","民宿　森のお宿","Mori-No-Oyado guesthouse","西牟婁郡白浜町大880-2","880-2 O, Shirahamacho, Nishimuro-gun","白浜・串本エリア","宿泊","L","33.646751","135.507812"
"340","ビジネスホテル田辺サンシャイン","Business Hotel Tanabe Sunshine ","田辺市稲成町231-6","231-6 Inaricho, Tanabe-shi","熊野エリア","宿泊","N","33.739334","135.374405"
"341","農家民泊もんぺとくわ","Monpe-To-Kuwa guesthouse","田辺市龍神村西261","261 Ryujinmuranishi, Tanabe-shi","熊野エリア","宿泊,グルメ","N","33.893108","135.488632"
"342","素泊り専科プチ白浜","Petit Shirahama guest house","西牟婁郡白浜町1335-60","1335-60 Shirahamacho, Nishimuro-gun","白浜・串本エリア","宿泊","L","33.669189","135.402939"
"343","正木自転車","Masaki Bicycle Shop","西牟婁郡白浜町1062-14","1062-14 Shirahamacho, Nishimuro-gun","白浜・串本エリア","ショッピング","L","33.669189","135.402939"
"344","畠山電気商会","Hatakeyama Denki Shokai Electric shpo","西牟婁郡白浜町1162-56","1162-56 Shirahamacho, Nishimuro-gun","白浜・串本エリア","ショッピング","L","33.669189","135.402939"
"345","龍神温泉上御殿","Ryujin Onsen Kamigoten hotel","田辺市龍神村龍神42","42 Ryujin, Ryujinmura, Tanabe-shi","熊野エリア","宿泊","L","33.962479","135.561264"
"346","坂井屋","Sakaiya Hotel","田辺市龍神村龍神56","56 Ryujin, Ryujinmura, Tanabe-shi","熊野エリア","宿泊","L","33.962479","135.561264"
"347","若山屋商店","Wakayamaya store","田辺市龍神村龍神44","44 Ryujinmuraryujin, Tanabe-shi","熊野エリア","グルメ,ショッピング","L","33.962479","135.561264"
"348","有軒屋","Arinokiya Inn","田辺市龍神村龍神39","39 Ryujinmuraryujin, Tanabe-shi","熊野エリア","宿泊","L","33.962479","135.561264"
"349","国民宿舎ホテルシラハマ","Hotel Shirahama","西牟婁郡白浜町813","813 Shirahamacho, Nishimuro-gun","白浜・串本エリア","宿泊","L","33.669189","135.402939"
"350","プラスワン","Plus One Guest House","西牟婁郡白浜町2927-1813","2927-1813 Shirahamacho, Nishimuro-gun","白浜・串本エリア","宿泊","L","33.669189","135.402939"
"351","福重","Fukuju Restaurant","西牟婁郡白浜町890-105","890-105 Shirahamacho, Nishimuro-gun","白浜・串本エリア","グルメ","L","33.669189","135.402939"
"352","ホテル花飾璃","Hotel Hanakazari","西牟婁郡白浜町1243","1243 Shirahamacho, Nishimuro-gun","白浜・串本エリア","宿泊","L","33.669189","135.402939"
"353","谷地商店","Taniji Shoten store (milk delivery, etc)","西牟婁郡白浜町1111-41","1111-41 Shirahamacho, Nishimuro-gun","白浜・串本エリア","グルメ","L","33.669189","135.402939"
"354","白浜ガス","Shirahama Gas store","西牟婁郡白浜町1130-36","1130-36 Shirahamacho, Nishimuro-gun","白浜・串本エリア","その他","L","33.669189","135.402939"
"355","岸商店","Gyoumu-super supermarket","西牟婁郡白浜町1111-21","1111-21 Shirahamacho, Nishimuro-gun","白浜・串本エリア","ショッピング","L","33.669189","135.402939"
"356","小さな宿　白南風","Shirahae guesthouse","西牟婁郡白浜町2022","2022 Shirahamacho, Nishimuro-gun","白浜・串本エリア","宿泊","L","33.669189","135.402939"
"357","岸酒店","Kishi Liquor Store","すさみ町周参見2094-6","2094-6 Susami, Susamicho","白浜・串本エリア","ショッピング","L","33.54924","135.493713"
"358","白浜シャンピア","Shirahama Shampia resort condominium","西牟婁郡白浜町3216-14","3216-14 Shirahamacho, Nishimuro-gun","白浜・串本エリア","宿泊","L","33.669189","135.402939"
"359","田辺駅前広場","Tanabe Train Station Square","田辺市湊963","963 Minato, Tanabe-shi","熊野エリア","ショッピング,公共交通,観光スポット,その他","N","33.733002","135.38472"
"360","マリンクラブスサミ","Marine Club Susami fishing service","西牟婁郡すさみ町周参見3363-3","3363-3 Susami, Susamicho, Nishimuro-gun","白浜・串本エリア","観光スポット,その他","L","33.554932","135.503235"
"361","杜の郷みるりいな","Morinosato Miruriina Cafe and Restaurant","田辺市本宮町大津荷5-3","5-3 Honguchootsuga, Tanabe-shi","熊野エリア","グルメ","L","33.823109","135.807266"
"362","ロイヤルリゾート白浜","Royal Resort Shirahama Apartment House","西牟婁郡白浜町3219-6","3219-6 Shirahamacho, Nishimuro-gun","白浜・串本エリア","宿泊","L","33.669189","135.402939"
"363","福すし","Fuku Sushi Restaurant","西牟婁郡上富田町朝来932","932 Asso, Kamitondacho, Nishimuro-gun","白浜・串本エリア","グルメ","L","33.694542","135.423706"
"364","エビとカニの水族館","Susami Crustacean Aquarium","西牟婁郡すさみ町江住808-1","808-1 Esumi, Susamicho, Nishimuro-gun","白浜・串本エリア","観光スポット,その他","N","33.515518","135.601379"
"365","バニラカフェ","Vanilla Cafe ","田辺市南新町201","201 Minamishinmachi, Tanaba-shi","熊野エリア","グルメ","N","33.732597","135.3806"
"366","よし平　総本店","Yoshihei main restaurant","田辺市神島台1-19","1-19 Kashimadai, Tanabe-shi","熊野エリア","グルメ","N","33.708248","135.401337"
"367","紀州うまいもん家傳八","Kishu Umaimon-Ya Denpachi restaurant","田辺市新庄町451-3","451-3 Shinjocho, Tanabe-shi","熊野エリア","グルメ","N","33.720535","135.401398"
"368","ホテル南海楼","Hotel Nankairo","田辺市湊996","996 Minato, Tanabe-shi","熊野エリア","宿泊","L","33.731613","135.383606"
"369","道の駅すさみ","Susami Michinoeki Road Station","西牟婁郡すさみ町江住808番地-1","808-1 Esumi, Susamicho, Nishimuro-gun","白浜・串本エリア","グルメ,ショッピング,観光スポット,その他","N","33.515518","135.601379"
"370","メガネのエノモト時計店","Meganeno Enomoto Eye Glasses and Watches Shop","田辺市湊1032","1032 Minato, Tanabe-shi","熊野エリア","ショッピング","N","33.731613","135.383606"
"371","民宿　五幸","Guesthouse Gokou","西牟婁郡白浜町御幸通3340-19","3340-19 Miyukidori, Shirahamacho, Nishimuro-gun","白浜・串本エリア","宿泊","N","33.669189","135.402939"
"372","丸井旅館","Marui Ryokan, Inn","田辺市龍神村西9-2","9-2 Ryujinmuranishi, Tanabe-shi","熊野エリア","宿泊","N","33.893108","135.488632"
"373","くまの薬局","Kumano Pharmacy","田辺市本宮町本宮256-1","256-1 Hongucho Hongu, Tanabe-shi","熊野エリア","ショッピング","N","33.836582","135.7715"
"374","本宮石油","Hongu Sekiyu Gas station","田辺市本宮町本宮1575-1","1575-1 Hongucho Hongu, Tanabe-shi","熊野エリア","その他","L","33.836582","135.7715"
"375","ウッドストック","WOOD STOCK Italian Restaurant","田辺市中屋敷町7-1","7-1 Nakayashikimachi, Tanabe-shi","熊野エリア","グルメ","N","33.732929","135.377274"
"376","民宿天空のさと山","Guesthouse Tenku no Satoyama","田辺市中辺路町高原916-1","916-1 Takahara, Nakahechicho, Tanabe-shi","熊野エリア","宿泊","L","33.786282","135.532532"
"377","喫茶　きっちん","Kitchen restaurant and café","田辺市本宮町本宮247-3","Hongu 247-3 Hongucho, Tanabe-shi","熊野エリア","グルメ","N","33.836582","135.7715"
"378","プレジデント椿","President Tsubaki resort condominium","西牟婁郡白浜町椿1055-9","1055-9 Shirahamacho, Nishimuro-gun","白浜・串本エリア","宿泊","N","33.60191","135.388779"
"379","リバージュ・スパひきがわ","Rivage Spa Hikigawa Onsen","西牟婁郡白浜町日置1013-25","1013-25 Hioki, Shirahamacho, Nishimuro-gun","白浜・串本エリア","宿泊","N","33.572285","135.429993"
"380","秋津野ガルテン","Restaurant Akizuno Garten","田辺市上秋津4558-8","4558-8 Kamiakizu, Tanabe-shi","熊野エリア","宿泊,グルメ,ショッピング,観光スポット,その他","N","33.756577","135.407379"
"381","美人亭","Bijintei Japanese-Style Bar","田辺市龍神村龍神96-3","96-3 Ryujin, Ryujin-mura, Tanabe-shi","熊野エリア","宿泊","L","33.962479","135.561264"
"382","南方熊楠記念館","Minakata Kumagusu Museum","西牟婁郡白浜町3601-1","3601-1 Shirahamacho, Nishimuro-gun","白浜・串本エリア","観光スポット","N","33.669189","135.402939"
"383","民宿　ゆの里","Minshuku Yunosato ","田辺市 本宮町 下湯川287","287 Shimoyukawa, Hongucho, Tanabe-shi","熊野エリア","宿泊","L","33.824139","135.754578"
"384","ワインディングロード","Variety Store Winding Road","田辺市末広町17-21","17-21 Suehirocho, Tanabe-shi","熊野エリア","宿泊","N","33.724377","135.382416"
"385","熊野ガラス工房","KUMANO Glass Workshop","田辺市本宮町本宮294","294 Tanabe-shi","熊野エリア","グルメ,ショッピング,その他","N","33.836582","135.7715"
"386","ビデオボックスREMOVA田辺店","Video Box Remova DVD rental shop, tanabe ","田辺市本町63","63 Honmachi, Tanabe-shi","熊野エリア","ショッピング","L","33.73312","135.375534"
"387","ＧＡＭＥ　ＢＯＸ　ワンパク　田辺店","Game Box Wanpaku Tanabe Shop","田辺市本町63-3","63-3 Honmachi, Tanabe-shi","熊野エリア","ショッピング","L","33.73312","135.375534"
"388","ＧＡＭＥ　ＢＯＸ　ワンパク　新庄店","Game Box Wanpaku Shinjo Shop","田辺市新庄町1977-4","1977-4 Shinjocho, Tanabe-shi","熊野エリア","ショッピング","L","33.717064","135.404175"
"389","正寿院","Shoujuin temple","田辺市上芳養993-2","993-2 Kamihaya, Tanabe-shi","熊野エリア","観光スポット,その他","N","33.788071","135.365509"
"390","民宿若竹","Wakatake guesthouse and Japanese-style bar","和歌山県西牟婁郡白浜町椿1062-8","1062-8 Tsubaki, Shirahamacho, Nishimuro-gun, Wakayama","白浜・串本エリア","宿泊,グルメ","L","33.60191","135.388779"
"391","箸折茶屋","Restaurant Hashiorichaya","田辺市中辺路町近露907-2","907-2 Chikatsuyu, Nakahechicho, Tanabe-shi","熊野エリア","グルメ","N","33.814606","135.605484"
"392","旬菜台所とも","Seasonal Vegetable Kitchen Tomo Restaurant","西牟婁郡白浜町1384-53","1384-53 Shirahamacho, Nishimuro-gun","白浜・串本エリア","グルメ","N","33.669189","135.402939"
"393","お好み焼きおがわ","Ogawa okonomiyaki restaurant","西牟婁郡白浜町3309-27","3309-27 Shirahamacho, Nishimuro-gun","白浜・串本エリア","グルメ","L","33.669189","135.402939"
"394","お食事しもじ　本店","Restaurant Oshokuji Shimoji Head Restaurant","田辺市本宮町請川330-1","330-1 Ukegawa, Hongucho, Tanabe-shi","熊野エリア","グルメ","N","33.811665","135.802734"
"395","お食事しもじ　本宮店","Restaurant Oshokuji Shimoji Hongu","田辺市本宮町本宮285","285 Hongu, Hongucho, Tanabe-shi","熊野エリア","グルメ","N","33.836582","135.7715"
"396","Ｙショップ　シモジ","Y Shop Shimoji Convenience Store","田辺市本宮町請川329-3","329-3 Ukegawa, Hongucho, Tanabe-shi","熊野エリア","ショッピング","N","33.811665","135.802734"
"397","紀伊田辺シティプラザホテル","Kii Tanabe City Plaza Hotel","田辺市東山1-5-32","1-5-32 Higashiyama, Tanabe-shi","熊野エリア","宿泊","L","33.728722","135.388626"
"398","亀屋旅館","Kameya Ryokan","田辺市本宮町川湯1434","1434 Kawayu, Hongucho, Tanabe-shi","熊野エリア","宿泊","N","33.810955","135.774078"
"399","海のお宿","Umi no Oyado, hotel","西牟婁郡すさみ町江住906-18","906-18 Esumi, Susamicho, Nishimuro-gun","白浜・串本エリア","宿泊","L","33.515518","135.601379"
"400","ホテル　ベルヴェデーレ","Hotel Bellevedere","西牟婁郡すさみ町周参見4857-3","4857-3 Susami, Susamicho, Nishimuro-gun","白浜・串本エリア","宿泊","L","33.560928","135.479401"
"401","民宿　前田屋","Minshuku Maedaya","西牟婁郡白浜町久木869-33","869-33 Hisagi, Shirahamacho, Nishimuro-gun","白浜・串本エリア","宿泊","L","33.637341","135.471024"
"402","田辺市旅館業組合","Tanabe-shi accomodation information office","田辺市湊727‐2 田辺市観光ｾﾝﾀｰ2階","Tanabe City Tourist Center 2F, 727-2 Minato, Tanabe-shi","熊野エリア","公共交通,観光スポット,その他","L","33.731586","135.385666"
"403","村田写真館","Murata Photo Shop","田辺市今福町91","91 Imafukumachi, Tanabe-shi","熊野エリア","ショッピング","N","33.732738","135.378494"
"404","よしのや旅館","Yoshinoya Inn","田辺市本宮町湯峯359","359 Honguchoyunomine, Tanabe-shi","熊野エリア","宿泊","N","33.833786","135.755417"
"405","海鮮料理　甚力","Jin Rikky Seafood Restaurant","西牟婁郡白浜町3079","3079 Shirahamacho, Nishimuro-gun","白浜・串本エリア","グルメ","L","33.669189","135.402939"
"406","ホテル　ルアンドン白浜","Hotel Luan Don Shirahama","西牟婁郡白浜町3354-9","3354-9 Shirahamacho, Nishimuro-gun","白浜・串本エリア","宿泊","L","33.669189","135.402939"
"407","観音寺","Kannonji temple","西牟婁郡上富田町1977","1977  Kamitondacho, Nishimuro-gun","白浜・串本エリア","観光スポット,その他","L","33.696411","135.428452"
"408","とれとれ市場 南紀白浜","Tore Tore Ichiba Seafood Market","西牟婁郡白浜町堅田2521","2521 Katata, Shirahamacho, Nishimuro-gun","白浜・串本エリア","グルメ,ショッピング,観光スポット,その他","N","33.681217","135.375015"
"409","白浜温泉紀州路","Shirahama Onsen Kishuji Accommodation","西牟婁郡白浜町3018-2","3018-2 Shirahamacho, Nishimuro-gun","白浜・串本エリア","宿泊","L","33.669189","135.402939"
"410","まるまさラーメン","Marumasa Ramen Restaurant","西牟婁郡白浜町890-37","890-37 Shirahamacho, Nishimuro-gun","白浜・串本エリア","グルメ","N","33.669189","135.402939"
"411","闘鶏神社","Toukei-jinja Shrine","田辺市東陽1-1","1-1 Touyou, Tanabe-shi","熊野エリア","観光スポット,その他","N","33.728203","135.390945"
"412","川湯みどりや","Kawayu Midoriya Ryokan","田辺市本宮町川湯13","13 Hongucho Kawayu, Tanabe-shi","熊野エリア","宿泊","L","33.810955","135.774078"
"413","川湯まつや","Kawayu Matsuya Inn","田辺市本宮町川湯29","13 Kawayu Hongucho, Tanabe-shi","熊野エリア","宿泊","N","33.810955","135.774078"
"414","民宿浜ぼう","Hamabou Minshuku","西牟婁郡白浜町49-1","49-1 Shirahamacho, Nishimuro-gun","白浜・串本エリア","宿泊","L","33.669189","135.402939"
"415","居酒屋　卯八","Japanese-style Bar Uhachi","西牟婁郡白浜町2927-105","2927-105 Shirahamacho, Nishimuro-gun","白浜・串本エリア","グルメ","N","33.669189","135.402939"
"416","ホテルサンリゾート白浜","Hotel Sunresort Shirahama","西牟婁郡白浜町堅田2500-185","2500-185 Katata, Shirahamacho, Nishimuro-gun","白浜・串本エリア","宿泊","L","33.684429","135.367401"
"417","二宮","Ninomiya Japanese-style confection store","田辺市下屋敷町27","27 Shimoyashikimachi, Tanabe-shi","熊野エリア","グルメ,ショッピング","N","33.73","135.381348"
"418","熊野本宮大社","Kumano Hongu Taisha Grand Shrine","田辺市本宮町本宮1110","1110 Honguchohongu, Tanabe-shi","熊野エリア","観光スポット,その他","N","33.836582","135.7715"
"419","瑞鳳殿","Zuihoden","田辺市本宮町本宮195-3","195-3 Honguchohongu, Tanabe-shi","熊野エリア","グルメ,ショッピング,観光スポット,その他","N","33.836582","135.7715"
"420","湯の峯荘","Yunominesou Inn","田辺市本宮町下湯川437","437 Shimoyukawa, Hongucho, Tanabe-shi","熊野エリア","宿泊","N","33.824139","135.754578"
"421","瀧よし","Minshuku Takiyoshi ","田辺市本宮町湯峯260-4","260-4 Yunomine, Hongucho, Tanabe-shi","熊野エリア","宿泊","N","33.833786","135.755417"
"422","Ｖショップ滝内店","V Shop Supermarket Takinai Store","田辺市新庄町2915-328","2915-328 Shinjocho, Tanabe-shi","熊野エリア","ショッピング","N","33.705635","135.396301"
"423","Ｖショップ桟橋店","V Shop Supermarket Sanbashi Store","西牟婁郡白浜町3744-3","3744-3 Shirahamacho, Nishimuro-gun","白浜・串本エリア","ショッピング","N","33.669189","135.402939"
"424","ザグランリゾートエレガンテ白浜","THE GRAN RESORT Elegante Shirahama Membership Hotel","西牟婁郡白浜町1813-8","1813-8 Shirahamacho, Nishimuro-gun","白浜・串本エリア","宿泊","L","33.669189","135.402939"
"425","ホテルグリーンヒル白浜","Hotel Green Hill Shirahama","西牟婁郡白浜町2018","2018 Shirahamacho, Nishimuro-gun","白浜・串本エリア","宿泊","L","33.669189","135.402939"
"426","玄米彩菜","Restaurant Genmaisaisai","田辺市新屋敷町6-1ﾊﾟｰｸｻｲﾄﾞﾎﾃﾙ7F","Parkside Hotel 7F, 6-1 Shinyashikimachi, Tanabe-shi","熊野エリア","グルメ","L","33.726452","135.378738"
"427","鮨康","Japanese Restaurant Sushiko","田辺市高雄1丁目1-12","1-1-12 Takao, Tanabe-shi","熊野エリア","グルメ","L","33.734985","135.381363"
"428","ハピネスちかつゆ","Happiness Chikatsuyu Rental House","田辺市近露606-2","606-2 Chikatsuyu, Tanabe-shi","熊野エリア","宿泊","L","33.727798","135.377701"
"429","南紀白浜梅樽温泉ホテルシーモア","Nanki Shirahama Umedaru Onsen HOTEL SEAMORE","西牟婁郡白浜町1821","1821 Shirahamacho, Nishimuro-gun","白浜・串本エリア","宿泊","N","33.669189","135.402939"
"430","温泉三昧の宿白浜館","Onsen Hotel Shirahamakan","西牟婁郡白浜町1379","1379 Shirahamacho, Nishimuro-gun","白浜・串本エリア","宿泊","N","33.669189","135.402939"
"431","ホテル天山閣海ゆぅ庭","Hotel Tenzankaku Kaiyutei","西牟婁郡白浜町2020","2020 Shirahamacho, Nishimuro-gun","白浜・串本エリア","宿泊","N","33.669189","135.402939"
"432","ホテル天山閣湯楽庵","Hotel Tenzankaku Yurakuan","西牟婁郡白浜町2927-553","2927-553 Shirahamacho, Nishimuro-gun","白浜・串本エリア","宿泊","N","33.669189","135.402939"
"433","民宿ｉｎｎしらはま駅の宿","Minshuku Inn Shirahama Station Accommodation","西牟婁郡白浜町堅田1479-1","1479-1 Katata, Shirahamacho, Nishimuro-gun","白浜・串本エリア","宿泊","N","33.680035","135.375351"
"434","休憩処いっぷく","Kyukeidokoro Ippuku Dining","田辺市本宮町本宮108-1","108-1 Hongu, Hongucho, Tanabe-shi","熊野エリア","グルメ","N","33.836582","135.7715"
"435","まちなかキッチン","Machinaka Kitchen Restaurant","西牟婁郡白浜町3300-19","3300-19 Shirahamacho, Nishimuro-gun","白浜・串本エリア","グルメ","L","33.669189","135.402939"
"436","民宿亀の井","Kamenoi Inn","東牟婁郡那智勝浦町朝日4丁目73番地","4-73 Asahi, Nachikatsuuracho, Higashimuro-gun","熊野エリア","宿泊","L","33.631161","135.9384"
"437","民宿小出","Koide Inn","東牟婁郡那智勝浦町天満867-6","867-6 Tenma, Nachikatsuuracho, Higashimuro-gun","熊野エリア","宿泊","L","33.631325","135.939194"
"438","花風月","Cafe Kafugetsu","新宮市上本町1-2-2","1-2-2 Kamihonmachi, Shingu-shi","熊野エリア","グルメ","L","33.731071","135.984909"
"439","那智山観光センター","Nachisan Tourism Center ","東牟婁郡那智勝浦町那智山442-2","442-2 Nachisan, Nachikatsuuracho, Higashimuro-gun","熊野エリア","グルメ,ショッピング,公共交通,観光スポット,その他","N","33.669655","135.892197"
"440","あづま寿司","Azuma Sushi","新宮市橋本2丁目11-33","2-11-33 Hashimoto, Shingu-shi","熊野エリア","グルメ","N","33.715172","135.98941"
"441","民宿　百福","Guesthouse Momofuku","新宮市熊野川町西224-3","224-3 Nishi, Kumanogawacho, Shingu-shi","熊野エリア","宿泊","L","33.756035","135.830261"
"442","徐福寿司　駅前店","Jofukuzushi Restaurant, Ekimae Branch","新宮市徐福2-1-9","2-1-9 Jofuku, Shingu-shi","熊野エリア","グルメ","N","33.725517","135.994507"
"443","堀田精肉店","Hotta Meat Shop","新宮市神倉1丁目4-5","1-4-5 Kamikura, Shingu-shi","熊野エリア","ショッピング","N","33.723415","135.98616"
"444","紀南石油販売所勝浦サービスステーション","Kinan Sekiyu gas station, Katsuura","東牟婁郡那智勝浦町朝日2丁目-231","2-231 Asahi, Nachikatsuuracho, Higashimuro-gun","熊野エリア","その他","N","33.629745","135.937912"
"445","紀南石油販売所新宮サービスステーション","Kinan Sekiyu gas station, Shingu","新宮市神倉2丁目-9-13","2-9-13 Kamikura, Shingu-shi","熊野エリア","その他","N","33.722271","135.986801"
"446","おむすび一郎","Omusubi Ichiro riceball take out shop, main shop","新宮市神倉1丁目7-26","1-7-26 Kamikura, Shingu-shi","熊野エリア","ショッピング","N","33.722279","135.986099"
"447","熊野物産","Kumano Bussan regional specialty products store ","新宮市神倉2丁目8-11","2-8-11 Kamikura, Shingu-shi","熊野エリア","ショッピング","N","33.722794","135.986816"
"448","堀忠酒店","Horichu Liquor Shop","東牟婁郡那智勝浦町築地3-3-6","3-3-6 Tsukiji, Nachikatsuuracho, Higashimuro-gun","熊野エリア","ショッピング","N","33.628136","135.943436"
"449","潮岬青少年の家","Shionomisaki youth house","東牟婁郡串本町潮岬669","669 Shionomisaki, Kushimotocho, Higashimuro-gun","白浜・串本エリア","宿泊","L","33.447922","135.760422"
"450","みさきロッヂ　西田","Misaki Lodge Nishida Minshuku","東牟婁郡串本町潮岬2864-1","2864-1 Shionomisaki, Kishimotocho, Higashimuro-gun","白浜・串本エリア","宿泊","L","33.447922","135.760422"
"451","民宿　チャイム","Chime Inn","東牟婁郡串本町潮岬669","669 Shionomisaki, Kushimotocho, Higashimuro-gun","白浜・串本エリア","宿泊","L","33.447922","135.760422"
"452","古座観光協会　観光案内所","Koza tourist information center","東牟婁郡串本町西向231-3","231-3 Nishimukai, Kushimotocho, Higashimuro-gun","白浜・串本エリア","ショッピング,公共交通,観光スポット,その他","N","33.518528","135.820786"
"453","新宮市観光協会　観光案内所","Shingu-shi tourist information center","新宮市徐福2丁目1-1","2-1-1 Jofuku, Shingu-shi","熊野エリア","公共交通,観光スポット,その他","N","33.725517","135.994507"
"454","ｍ’ａｆｆａｂｌｙ","m'affably Aroma shop","新宮市熊野川町西225-2","225-2 Kumanogawachonishi, Shingu-shi","熊野エリア","ショッピング","L","33.756035","135.830261"
"455","串本町観光協会　観光案内所","Kushimoto-cho tourist information center","東牟婁郡串本町串本33","33 Kushimoto, Kushimotocho, Higashimuro-gun","白浜・串本エリア","公共交通,その他","N","33.47504","135.782272"
"456","御食事処桂城","Oshokujidokoro Katsuragi Restaurant","東牟婁郡那智勝浦町勝浦398-11","398-11 Katsuura, Nachikatsuuracho, Higashimuro-gun","熊野エリア","グルメ","L","33.629299","135.944016"
"457","ホテル浦島","Hotel Urashima","東牟婁郡那智勝浦町勝浦1165-2","1165-2 Katsuura, Nachikatsuuracho, Higashimuro-gun","熊野エリア","宿泊","L","33.626282","135.95079"
"458","万清楼","Manseiro Inn","東牟婁郡那智勝浦町勝浦448","448 Katsuura, Nachikatsuuracho, Higashimuro-gun","熊野エリア","宿泊","L","33.628319","135.945526"
"459","和風料理ｂｏｄａｉ（ボダイ）","Bodai Wafu Ryori Restaurant","東牟婁郡那智勝浦町築地5-1-3","5-1-3 Tsukiji, Nachikatsuuracho, Higashimuro-gun","熊野エリア","グルメ","N","33.628056","135.942154"
"460","ノエビア　新宮中央販売","NOEVIR Cosmetics shop, Shingu Chuo","東牟婁郡那智勝浦町宇久井57-1","57-1 Ugui, Nachikatsuuracho, Higashimuro-gun","熊野エリア","ショッピング","L","33.660748","135.971085"
"461","ダイブリゾート田子","Dive Resort Tako","東牟婁郡串本町田子619","619 Tako, Kushimotocho, Higashimuro-gun","白浜・串本エリア","観光スポット,その他","L","33.491318","135.684891"
"462","味斗","Ajito Seafood Restaurant","新宮市横町1-1-9","1-1-9 Yokomachi, ,Shingu-shi","熊野エリア","グルメ","N","33.729153","135.987411"
"463","民宿喫茶たい島","Taijima guesthouse and café","東牟婁郡串本町西向1260-2","1260-2 Nishimukai, Kushimotocho, Higashimuro-gun","白浜・串本エリア","宿泊,グルメ","L","33.506233","135.815582"
"464","まえ田","Maeda Sushi and Japanese restaurant","新宮市橋本2-10-30","2-10-30 Hashimoto, Shingu-shi","熊野エリア","グルメ","L","33.715462","135.988586"
"465","うどん・そば　はし杭","Hashigui noodle restaurant","東牟婁郡串本町くじの川1548-1","1548-1 Kujinokawa, Kushimoto-cho, Higashimuro-gun","白浜・串本エリア","宿泊,グルメ","L","33.472569","135.78154"
"466","ビジネスホテル　くすもと","Business Hotel Kusumoto","東牟婁郡那智勝浦町築地7丁目6-25","7-6-25 Tsukiji, Nachikatsuuracho, Higashimuro-gun","熊野エリア","宿泊","L","33.626503","135.942902"
"467","ヴァレ・ノワ－ル","Cafe Valley Noir ","東牟婁郡串本町津荷133","133 Tsuga, Kushimotocho, Higashimuro-gun","白浜・串本エリア","グルメ","N","33.518902","135.84227"
"468","モスバーガー　新宮店","MOSBURGER, Shingu","新宮市下田2丁目2-7","2-2-7 Shimoda, Shingu-shi","熊野エリア","グルメ","L","33.717606","135.992447"
"469","串本応挙芦雪館","Kushimoto Okyo Rosetsu Art Museum","東牟婁郡串本町串本833","833 Kushimoto, kushimotocho, Higashimuro-gun","白浜・串本エリア","観光スポット","N","33.470776","135.777863"
"470","和の食彩　古城","Kojo, Japanese restaurant","新宮市神倉4-3-18","4-3-18 Kamikura, Shingu-shi","熊野エリア","グルメ","N","33.72023","135.988144"
"471","那智勝浦町観光協会　観光案内所","Nachikatsuura-cho tourist information center","東牟婁郡那智勝浦築地6丁目1番地1","6-1-1 nachikatsuura, Higashimuro-gun","熊野エリア","公共交通,観光スポット,その他","N","33.626122","135.940994"
"472","温泉民宿　小阪屋","Onsen Minshuku Kosakaya","東牟婁郡那智勝浦町北浜1-18","1-18 Kitahama, Nachikatsuuracho, Higashimuro-gun","熊野エリア","宿泊","L","33.630398","135.943069"
"473","不二家オークワ新宮仲之町店","Fujiya confectionery Okuwa Shingu Nakanocho store","新宮市谷王子町418-1","418-1 Taniojicho, Shingu-shi","熊野エリア","グルメ,ショッピング","N","33.728191","135.988419"
"474","（有）リフレわかやま","Rifre Wakayama Co., Ltd., internet service","新宮市神倉2-7-32","2-7-32 Kamikura, Shingu-shi","熊野エリア","ショッピング","N","33.723553","135.986862"
"475","つぼちゃ青果","Tsubocha fruit shop","新宮市神倉2-7-27","2-7-32 Kamikura, Shingu-shi","熊野エリア","ショッピング","N","33.723553","135.986862"
"476","松　寿司","Restaurant Matsu Sushi","東牟婁郡串本町串本1735-91","1735-91 Kushimoto, Kushimotocho, Higashimuro-gun","白浜・串本エリア","グルメ","N","33.468723","135.781189"
"477","花清","Hanasei flower shop","新宮市神倉1-6-5","1-6-5 Kamikura, Shingu-shi","熊野エリア","ショッピング","N","33.722851","135.986115"
"478","熊野水軍　天酔","Kumano Suigun, Tensui, Japanese culinary art restaurant","新宮市伊佐田町1-3-12","1-3-12 Isadacho, Shingu-shi","熊野エリア","グルメ","N","33.72797","135.993378"
"479","かつうら御苑","Hotel Katsuura gyoen","那智勝浦町勝浦216-19","216-19 Katsuura, Nachikatsuuracho","熊野エリア","宿泊","L","33.633465","135.942642"
"480","中華料理　万惣","Chinese Restaurant Manso","新宮市横町2-2-16","2-2-16 Yokomachi, Shingu-shi","熊野エリア","グルメ","N","33.728828","135.988388"
"481","太地フィールドカヤック","Field Kayak tour, Taijicho branch of Japan Fisheries Co-operatives","東牟婁郡太地町森浦685-27","685-27 Moriura, Taijicho, Higashi Muro-gun","熊野エリア","観光スポット,その他","L","33.597282","135.93718"
"482","イル・ド・フランス","ILE DE FRANCE, French restaurant","新宮市新宮7697","7697 Shingu, Shingu-shi","熊野エリア","グルメ","N","33.731159","135.990997"
"483","勝浦漁業協同組合（魚市場見学）","Katsuura fish market","那智勝浦町築地7-8-2","7-8-2 Tsukiji, Nachikatsuuracho","熊野エリア","観光スポット,その他","L","33.625549","135.942749"
"484","祥源寺","Shogenji temple","東牟婁郡古座川町高池500","500 Takaike, Kozagawacho,  Higashi Muro-gun","白浜・串本エリア","観光スポット","L","33.532391","135.814468"
"485","サンタウンホール","Suntown Hall","新宮市仲之町1丁目2-6","1-2-6 Nakanocho, Shingu-shi","熊野エリア","その他","N","33.729599","135.98761"
"486","ビストロ　プティジョア","Petit joie, bistro","新宮市別当屋敷町4-7","4-7 Bettoyashikicho, Shingu-shi","熊野エリア","グルメ","N","33.72876","135.985657"
"487","みなみ野フィールズ不動坂","Minamino Fields Fudozaka Camping Ground","東牟婁郡那智勝浦町南平野1227","1227 Minamihirano, Nachikatsuuracho, Higashimuro-gun","熊野エリア","宿泊","L","33.648609","135.880951"
"488","やまさき屋旅館","Yamasakiya Ryokan","東牟婁郡古座川町高池225","225 Takaike, Kozagawacho, Higashimuro-gun","白浜・串本エリア","宿泊","L","33.532391","135.814468"
"489","民宿わかたけ","Minshuku Wakatake","那智勝浦町朝日3-34","3-34 Asahi, Nachikatsuuracho","熊野エリア","宿泊","L","33.629147","135.940216"
"490","シートピア串本","Diving Shop Seatopia Kushimoto","東牟婁郡串本町高富580-1","580-1 Takatomi, Kushimotocho, Higashimuro-gun","白浜・串本エリア","観光スポット,その他","L","33.488632","135.759125"
"491","焼肉ひげ","Yakiniku Hige, Kumano beef BBQ restaurant","新宮市神倉4-3-19","4-3-19 Kamikura, Shingu-shi","熊野エリア","グルメ","N","33.72023","135.988144"
"492","雅楽","Garaku, Japanese culinary art restaurant","新宮市下田2丁目3-40","2-3-40 Shimoda, Shingu-shi","熊野エリア","グルメ","L","33.717621","135.99382"
"493","涼風","Creation Foods Dining Suzuka Restaurant","新宮市新宮7684-39","7684-39 Shingu, Shingu-shi","熊野エリア","グルメ","N","33.728882","135.991119"
"494","はもん亭","Hamon tei restaurant","新宮市神倉4-3-2","4-3-2 Kamikura, Shingu-shi","熊野エリア","グルメ","N","33.72023","135.988144"
"495","心楽","Shinraku, Japanese style pub","新宮市緑ヶ丘1丁目1-34明洋ﾋﾞｼﾞﾈｽｾﾝﾀｰ1F","Meiyo Business Center 1F, 1-1-34 Midorigaoka, Shingu-shi","熊野エリア","グルメ","L","33.721523","135.991943"
"496","ソップ亭","Soppu tei, sumo hot pot restaurant","新宮市徐福1-3-8","1-3-8 Jofuku, Shingu-shi","熊野エリア","グルメ","N","33.725872","135.994324"
"497","JR・南海橋本駅","JR・NANKAI Hashimoto Sta.","橋本市古佐田1-4-51","1-4-51 Kosada, Hashimoto-shi","高野山エリア","公共交通","L","34.318375","135.616104"
"498","JR　高野口","JR Koyaguchi Sta.","橋本市高野口町名倉字城跡790-2","790-2 Nagura, Koyaguchi-cho","高野山エリア","公共交通","L","34.30497","135.554642"
"499","橋本市図書館","Hashimoto City Library","橋本市東家1-6-27","1-6-27 Toge, Hashimoto-shi","高野山エリア","その他","N","34.315704","135.605179"
"500","くまの古道歴史民俗資料館","Kumano Kodo Museum of History and Folklore","有田市糸我町中番330-2","330-2 Nakaban, Itogacho, Arida-shi","有田・湯浅・日高エリア","観光スポット","L","34.067818","135.176788"
"501","龍神宮代オートキャンプ場","Ryujin Miyashiro Autocamp Field","田辺市龍神村宮代620","620 Miyashiro, ryujin-mura, Tanabe-shi","熊野エリア","宿泊","L","33.915344","135.501846"
"502","龍神温泉元湯別館","Ryujin Onsen Motoyu annex","田辺市龍神村龍神5","5 Ryujin,ryujin-mura,Tanabe-shi","熊野エリア","宿泊","L","33.962479","135.561264"
"503","龍神温泉元湯","Ryujin Onsen Motoyu","田辺市龍神村龍神37","37 Ryujin,ryujin-mura,Tanabe-shi","熊野エリア","宿泊","L","33.962479","135.561264"
"504","季楽里龍神","Kirari-Ryujin Hotel","田辺市龍神村龍神189","189 Ryujin,ryujin-mura,Tanabe-shi","熊野エリア","宿泊,グルメ,ショッピング,観光スポット","L","33.962479","135.561264"
"505","林業開発センター　深山荘","Shinzanso","田辺市龍神村小又川281","281 Komatagawa,ryujin-mura,Tanabe-shi","熊野エリア","宿泊","L","33.944862","135.570435"
"506","丹生ヤマセミ温泉館","Yamasemi-Onsenkan","田辺市龍神村丹生ﾉ川275-2","275-2 Nyunogawa,ryujin-mura,Tanabe-shi","熊野エリア","宿泊,その他","L","33.91626","135.589508"
"507","熊野の郷　古道ケ丘","Kodo-ga-oka","田辺市中辺路町栗栖川844-100","844-100 Kurisugawa,Nakahechi-cho,Tanabe-shi","熊野エリア","宿泊","L","33.787922","135.50943"
"508","近露観光交流館　かめや","Chikatsuyu Experience Center Kameya","田辺市中辺路町近露1129","1129 Chikatuyu,Nakahechi-cho,Tanabe-shi","熊野エリア","グルメ,観光スポット,その他","L","33.814606","135.605484"
"509","クアハウス熊野本宮","Kurhaus Kumano Hongu","田辺市本宮町渡瀬45-3","45-3 Wataze,Hongu-cho,Tanabe-shi","熊野エリア","宿泊,その他","L","33.820541","135.762558"
"510","田辺市立武道館","Tanabe Martial Arts Gymnasium","田辺市目良44-8","44-8 Mera,Tanabe-shi","熊野エリア","その他","L","33.737461","135.357925"
"511","田辺市立弓道場","Tanabe Japanese Archery Training Hall","田辺市目良42-1","42-1 Mera,Tanabe-shi","熊野エリア","その他","L","33.736439","135.357193"
"512","徐福公園","Jofuku Park","新宮市徐福1-4-24","1-4-24 Jofuku, Shingu-shi","熊野エリア","観光スポット","N","33.725925","135.995331"
"513","熊野川温泉さつき","Kumanogawa Onsen Satsuki,  onsen bath","新宮市熊野川町日足707","707 Hitari, Kumanogawacho Shingu-shi","熊野エリア","その他","L","33.805668","135.873123"
"514","小口自然の家","Koguchi camp site & lodging facility","新宮市熊野川町上長井398","398 Kaminagai, Kumanogawacho, Shingu-shi","熊野エリア","宿泊","N","33.767433","135.846588"
"515","川舟センター","Kumano river Kawabune boat tour center","新宮市熊野川町日足350","350 Hitari, Kumanogawacho Shingu-shi","熊野エリア","観光スポット,その他","N","33.805668","135.873123"
"516","まちなか観光情報センター","Machinaka tourist information center","新宮市浮島6","6 Ukijima, Shingu-shi","熊野エリア","観光スポット,その他","N","33.726505","135.991379"
"517","浮島の森","Ukijima-No-Mori Island","新宮市浮島3ｰ38","3-38 Ukijima, Shingu-shi","熊野エリア","観光スポット","N","33.725574","135.98999"
"518","川原家横丁","Kawaraya Yokocho Store Alley","新宮市船町1-2-1","1-2-1 Funamachi, Shingu-shi","熊野エリア","グルメ,ショッピング,観光スポット,その他","L","33.732246","135.985397"
"519","神倉神社","Kamikura-jinja Shrine","新宮市神倉1-13-8","1-13-8 Kamikura, Shingu-shi","熊野エリア","観光スポット,その他","N","33.723278","135.983902"
"520","新宮市立歴史民俗資料館","Shingu Museum of History and Folkore","新宮市阿須賀1-2-28","1-2-28 Asuka, Shingu-shi","熊野エリア","観光スポット","L","33.7281","135.998184"
"521","青州の里フラワーヒルミュージアム","Flower Hill Museum Seishu-no-sato","紀の川市西野山473","473 Nishinoyama, Kinokawa-shi","和歌山市エリア","グルメ,ショッピング,観光スポット","N","34.280617","135.441666"
"522","のかみふれあい公園","Nokami Fureai Park","海草郡紀美野町西野971","971 Nishino, Minocho, Kaiso-gun","和歌山市エリア","観光スポット,その他","N","34.175732","135.343796"
"523","みさと天文台","Misato Astronomical Observatory","海草郡紀美野町松ヶ峯180","180 Matsugamine, Kiminocho, Kaiso-gun","和歌山市エリア","観光スポット","N","34.138329","135.404678"
"524","かつらぎ町笠田観光案内所","Tourist Information Center Kaseda Katsuragicho","伊都郡かつらぎ町笠田東19-1","19-1 Kasedahigashi, Katsuragicho, Ito-gun","高野山エリア","公共交通,観光スポット,その他","N","34.288429","135.479355"
"525","かつらぎ町天野地域交流センター","Katsuragicho Amano District Exchange Center","伊都郡かつらぎ町下天野927","927 Shimoamano, Katsuragicho, Ito-gun","高野山エリア","観光スポット,その他","N","34.259457","135.511948"
"526","かつらぎ町四郷地域交流センター","Katsuragicho Shigo District Exchange Center","伊都郡かつらぎ町広口1197","1197 Hirokuchi, Katsuragicho, Ito-gun","高野山エリア","観光スポット,その他","N","34.326855","135.468872"
"527","九度山・真田ミュージアム","Kudoyama Sanada Museum","伊都郡九度山町九度山1452-4","1452-4 Kudoyama, Kudoyamacho, Ito-gun","高野山エリア","観光スポット,その他","L","34.29174","135.559586"
"528","稲むらの火の館","Inamura No Hi No Yakata","有田郡広川町大字広671","671 Ooazahiro, Hirogawacho, Arida-gun","有田・湯浅・日高エリア","観光スポット","N","34.02763","135.177795"
"529","ほたるの湯","Hotarunoyu Hot Spring Resort","有田郡広川町下津木1539","1539 Shimotsugi. Hirogawacho, Arida-gun","有田・湯浅・日高エリア","宿泊,グルメ,その他","N","33.987705","135.204025"
"530","温泉館「海の里」みちしおの湯","Onsenkan Uminosato Michishionoyu Onsen","日高郡日高町方杭100番地","100 Katakui, Hidakacho, Hidaka-gun","有田・湯浅・日高エリア","グルメ,その他","L","33.939091","135.087326"
"531","海の家産湯","Uminoie Ubuyu Beach Hut","日高郡日高町産湯"," Ubuyu, Hidakacho, Hidaka-gun","有田・湯浅・日高エリア","その他","L","33.912647","135.084717"
"532","日高川交流センター","Hidakagawa Exchange Center","日高郡日高川町高津尾718-3","718-3 Takatsuo, Hidakagawacho, Hidaka-gun","有田・湯浅・日高エリア","観光スポット,その他","N","33.964417","135.288818"
"533","上富田町産業振興・文化交流会館","Kamitondacho, Industry Promotion & Cultural Exchange Center","西牟婁郡上富田町朝来2537-57","2537-57 Asso, Kamitondacho, Nishimuro-gun","白浜・串本エリア","観光スポット,その他","L","33.696758","135.419754"
"534","おくとろ公園","Okutoro Park Bungalow","東牟婁郡北山村大字下尾井おくとろ公園ｷｬﾝﾌﾟ場","Okutoro Park Camping Site,  Shimooi, Kitayamamura, Higashimuro-gun","熊野エリア","宿泊,グルメ,ショッピング,観光スポット,その他","L","33.940647","135.946533"
"535","トルコ記念館","Turkish Museum","東牟婁郡串本町樫野1025-26","1025-26 Kashino, Kushimotocho, Higashi Muro-gun","白浜・串本エリア","観光スポット,その他","N","33.465878","135.850937"
"536","田辺市役所","Tanabe-shi Hall","田辺市新屋敷町1","1 Shinyashiki-cho,Tanabe-shi","熊野エリア","その他","L","33.727798","135.377701"
"537","田辺市観光センター","Tanabe Tourist information Center","田辺市湊727-2","727-2 Minato,Tanabe-shi","熊野エリア","観光スポット,その他","L","33.731586","135.385666"
"538","扇ケ浜公園","Ogigahama Park","田辺市扇ｹ浜","Ougigahama Tanabe-shi","熊野エリア","観光スポット","L","33.725159","135.378494"
"539","田辺スポーツパーク（テニスコート）","Tanabe Sports Park（Tennis court）","田辺市上の山1-23-1-5","1-23-1-5 Uenoyama,Tanabe-shi","熊野エリア","その他","L","33.736965","135.365494"
"540","田辺スポーツパーク（野球場）","Tanabe Sports Park（baseball stadium）","田辺市上の山1-23-1-2","1-23-1-2 Uenoyama,Tanabe-shi","熊野エリア","その他","L","33.736965","135.365494"
"541","田辺スポーツパーク（陸上競技場）","Tanabe Sports Park（Track and field）","田辺市上の山1-23-1-1","1-23-1-1 Uenoyama,Tanabe-shi","熊野エリア","その他","L","33.736965","135.365494"
"542","新庄総合公園","Shinjo Park","田辺市たきない町","Takinai-cho Tanabe-shi","熊野エリア","その他","L","33.702442","135.399612"
"543","田辺市民総合センター","Tanabe Shimin-Sogo Center","田辺市高雄1-23-1","1-23-1 Takao,Tanabe-shi","熊野エリア","その他","L","33.735634","135.377289"
"544","田辺市体育センター","Tanabe Physical Education Center","田辺市芳養町108-4","108-4 Haya-cho,Tanabe-shi","熊野エリア","その他","L","33.747715","135.345688"
"545","西部センター","Seibu Culture&Community Center","田辺市天神崎11-9","11-9 Tenjinzaki,Tanabe-shi","熊野エリア","その他","L","33.733444","135.362137"
"546","芳養公民館","Haya Community Center","田辺市芳養松原1-15-8","1-15-8 Hayamatubara,Tanabe-shi","熊野エリア","その他","L","33.747616","135.354095"
"547","万呂コミュニティセンター","Maro Community Center","田辺市中万呂46-3","46-3 Nakamaro,Tanabe-shi","熊野エリア","その他","L","33.73761","135.401291"
"548","三栖コミュニティセンター","Misu Community Center","田辺市中三栖805","805 Nakamisu,Tanabe-shi","熊野エリア","その他","L","33.745811","135.432785"
"549","秋津公民館","Akizu Community Center","田辺市秋津町227-30","227-30 akizu-cho,Tanabe-shi","熊野エリア","その他","L","33.748257","135.392868"
"550","上秋津公民館","Kamiakizu Community Center","田辺市上秋津2083-1","2083-1 Kamiakizu,Tanabe-shi","熊野エリア","その他","L","33.755245","135.404785"
"551","上芳養公民館","Kamihaya Community Center","田辺市上芳養3165","3165 Kamihaya,Tanabe-shi","熊野エリア","その他","L","33.788071","135.365509"
"552","ひがしコミュニティセンター","Higashi Community Center","田辺市南新万28-1","28-1 Minamishinman,Tanabe-shi","熊野エリア","その他","L","33.732285","135.399719"
"553","田辺市龍神行政局","Ryujin Administrative Bureau","田辺市龍神村西376","376 Nishi,ryujin-mura,Tanabe-shi","熊野エリア","その他","L","33.893108","135.488632"
"554","龍神市民センター","Rujin Community Center","田辺市龍神村安井1048-6","1048-6 Yasui,Ryujin-mura,Tanabe-shi","熊野エリア","その他","L","33.889057","135.477005"
"555","田辺市中辺路行政局","Nakahechi Administrative Bureau","田辺市中辺路町栗栖川396-1","396-1 Kurisugawa,Nakahechi-cho,Tanabe-shi","熊野エリア","その他","L","33.787922","135.50943"
"556","中辺路コミュニティセンター","Nakahechi Community Center","田辺市中辺路町栗栖川402-1","402-1 Kurisugawa,Nakahechi-cho,Tanabe-shi","熊野エリア","その他","L","33.787922","135.50943"
"557","熊野古道館","KUMANO KODO KAN Pilgrimage Center","田辺市中辺路町栗栖川1222-1","1222-1 Kurisugawa,Nakahechi-cho,Tanabe-shi","熊野エリア","観光スポット,その他","L","33.787922","135.50943"
"558","高原霧の里","Takahara Kiri-no-Sato rest area","田辺市中辺路町高原1041-1","1041-1 Takahara,Nakahechi-cho,Tanabe-shi","熊野エリア","観光スポット,その他","L","33.786282","135.532532"
"559","田辺市大塔行政局","Oto Administrative Bureau","田辺市鮎川2567-1","2567-1 Ayukawa,Tanabe-shi","熊野エリア","その他","L","33.731274","135.505798"
"560","大塔総合文化会館","Oto Culture Hall","田辺市鮎川2567-1","2567-1 Ayukawa,Tanabe-shi","熊野エリア","その他","L","33.731274","135.505798"
"561","鮎川王子カモン館","Kamon-kan Information Center","田辺市鮎川597-59","597-59 Ayukawa,Tanabe-shi","熊野エリア","その他","L","33.731274","135.505798"
"562","田辺市本宮行政局","Hongu Administrative Bureau","田辺市本宮町本宮219","219 Hongu,Hongu-cho,Tanabe-shi","熊野エリア","その他","L","33.836582","135.7715"
"563","世界遺産 熊野本宮館","Kumano Hongu Heritage Center","田辺市本宮町本宮100-1","100-1 Hongu,Hongu-cho,Tanabe-shi","熊野エリア","観光スポット,その他","L","33.836582","135.7715"
"564","新庄公民館","Shinjo Community Center","田辺市新庄町2031-3","2031-3 Shinjo-cho,Tanabe-shi","熊野エリア","その他","L","33.71769","135.404968"
"565","レモネード・カフェ","Lemoned Cafe","和歌山市元寺町1-54","1-54 Motoderamachi Wakayama-shi","和歌山市エリア","グルメ","N","34.234451","135.177414"
"566","パソカレッジ橋本教室","Pasocollege Hashimoto Kyoshitsu","橋本市小原田68ﾃﾅﾝﾄSing1階","1F Sing, 68 Oharata Hashimoto-shi","高野山エリア","その他","N","34.328766","135.607162"
"567","ヘアメイクＢＥＧＩＮ","Hairmake BEGIN","和歌山市川辺220ｲｽﾞﾐﾔ紀伊川辺店BEGIN","Izumiya Kiikawabe Store Hairmake BEGIN, 220 Kawanabe Wakayama-shi","和歌山市エリア","その他","N","34.258183","135.264786"
"568","憩楽クラブかつらぎ","Ikora Club Katsuragi","伊都郡かつらぎ町大字笠田東396-3かつらぎ町笠田公民館","Katsuragi Town Kasada Community Center, 396-3 Oaza Kasedahigashi  Katsuragi-cho Itogun","高野山エリア","その他","N","34.288029","135.478271"
"569","カラオケボックス一丁目","Karaoke Box Itchome","新宮市橋本1丁目9-1宮本ﾋﾞﾙ","Miyamoto Bldg., 1-9-1 Hashimoto Shingu-shi","熊野エリア","その他","N","33.714619","135.985962"
"570","福町調剤薬局","Fukumachi Dispensing Pharmacy","和歌山市福町36","36 Fukumachi Wakayama-shi","和歌山市エリア","その他","N","34.232937","135.172119"
"571","アリス","Alice","和歌山市小雑賀3丁目5-17","3-5-17 Kozaika Wakayama-shi","和歌山市エリア","ショッピング","N","34.212376","135.184952"
"572","ダウンザライン","DOWN The LINE","和歌山市西仲間町2丁目15和歌山第一ﾋﾞﾙ201号","201, Wakayama Daiichi Bldg., 2-15 Nishichugemmachi Wakayama-shi","和歌山市エリア","ショッピング","N","34.238537","135.178833"
"573","たつのや","Tatsunoya","西牟婁郡白浜町日置1203","1203 Hiki Shirahama-cho Nishimurogun","白浜・串本エリア","宿泊","N","33.568886","135.43631"
"574","Ｒｏｏｔｓ","Roots","田辺市東山1丁目10-10ﾗ･ﾍﾞｼﾞﾌﾞﾙ地下1F1号","1, B1, La Paisible, 1-10-10 Higashiyama Tanabe-shi","熊野エリア","その他","N","33.728886","135.390472"
"575","イザワ","Izawa","和歌山市鳴神973-3","973-3 Narukami Wakayama-shi","和歌山市エリア","その他","N","34.231026","135.209137"
"576","理容ウエダ","Barber Ueda","和歌山市船所28-8","28-8 Funadokoro Wakayama-shi","和歌山市エリア","その他","N","34.255154","135.182098"
"577","スプランドゥール","SPLENDEUR","岩出市中黒434-1","434-1 Nakakuro Iwade-shi","和歌山市エリア","その他","N","34.271732","135.285172"
"578","フリンデル（ｖｌｉｎｄｅｒ）","vlinder","和歌山市秋月222-5","222-5 Akizuki Wakayama-shi","和歌山市エリア","その他","N","34.230518","135.201843"
"579","間藤教室","Mato Kyoshitsu","和歌山市毛見1130TTﾋﾞﾙ 2F","2F TT Bldg., 1130 Kemi Wakayama-shi","和歌山市エリア","その他","N","34.164871","135.188095"
"580","とちの接骨院","Tochino Orthopedic Clinic","有田郡湯浅町大字青木748-1","748-1 Oaza Aoki  Yuasa-cho Aridagun","有田・湯浅・日高エリア","その他","N","34.033749","135.190567"
"581","オートサービスエフワン","F-1 AUTO SERVICE","和歌山市西浜1660-401和歌山中央卸売B棟","Building B, Wakayama City Central Wholesale Market, 1660-401 Nishihama Wakayama-shi","和歌山市エリア","ショッピング","N","34.203659","135.146271"
"582","ワークショップニッカ","Workshop Knicker","御坊市薗816-8","816-8 Sono Gobo-shi","有田・湯浅・日高エリア","ショッピング","N","33.883984","135.15712"
"583","マツモトマリンメカニック","Matsumoto Marine Mechanic","田辺市天神崎38-13","38-13 Tenjinzaki Tanabe-shi","熊野エリア","ショッピング","N","33.729309","135.358612"
"584","髪屋ＫＩＴＴＥＣＯ","Kamiya KITTECO","田辺市下万呂587-1","587-1 Shimomaro Tanabe-shi","熊野エリア","その他","N","33.740749","135.393295"
"585","福岡電器店","Fukuoka Denkiten","新宮市徐福2丁目3-16","2-3-16 Jofuku Shingu-shi","熊野エリア","ショッピング","N","33.725327","135.995346"
"586","浜中渡船待合所","Hamanaka Tosen Machiaisho","東牟婁郡串本町潮岬1159","1159 Shionomisaki Kushimoto-cho Higashimurogun","白浜・串本エリア","その他","N","33.447922","135.760422"
"587","ＯｎｅＬｏｖｅ","OneLove","御坊市島87","87 Shima Gobo-shi","有田・湯浅・日高エリア","ショッピング","N","33.895065","135.158554"
"588","海鮮料理勝丸","Kaisenryori Katsumaru","新宮市春日2-12","2-12 Kasuga Shingu-shi","熊野エリア","グルメ","N","33.724861","135.993179"
"589","惣’ｓキッチン","So's Kitchin","和歌山市屋形町4丁目35","4-35 Yakatamachi Wakayama-shi","和歌山市エリア","グルメ","N","34.226116","135.178772"
"590","黒潮堂","Kuroshiodo","新宮市新宮7684-72","7684-72 Shingu Shingu-shi","熊野エリア","ショッピング","N","33.728882","135.991119"
"591","珊瑚礁","Sangosho","西牟婁郡白浜町500-1","500-1  Shirahama-cho Nishimurogun","白浜・串本エリア","グルメ","N","33.669189","135.402939"
"592","高野口ゴルフリンクスフライングハイ","Koyaguchi Golf Lynx Flying High","橋本市高野口町大野1844-61","1844-61 Koyaguchichoono Hashimoto-shi","高野山エリア","その他","N","34.325569","135.559662"
"593","井戸モータース","Ido Motors","有田郡有田川町大字水尻1-3須佐見ﾋﾞﾙ 1階","1F Susami Bldg., 1-3 Oaza Mizushiri  Aridagawa-cho Aridagun","有田・湯浅・日高エリア","ショッピング","N","34.052528","135.194122"
"594","梅義","Umeyoshi","有田市宮崎町545-1","545-1 Miyazakicho Arida-shi","有田・湯浅・日高エリア","ショッピング","N","34.078175","135.103653"
"595","髪緋煌貴美容室","Kamihikoki Beauty Parlor","有田郡広川町大字広272-1田中ﾏﾝｼｮﾝ1階2号","2, 1F Tanaka Mansion, 272-1 Oaza Hiro  Hirogawa-cho Aridagun","有田・湯浅・日高エリア","その他","N","34.02763","135.177795"
"596","シモジスポーツ","Shimoji Sports","新宮市新宮7639","7639 Shingu Shingu-shi","熊野エリア","ショッピング","N","33.727074","135.992676"
"597","湯浅英数学院","Yuasa Eisugakuin","有田郡湯浅町大字湯浅871-1","871-1 Oaza Yuasa  Yuasa-cho Aridagun","有田・湯浅・日高エリア","その他","N","34.036118","135.178345"
"598","紀州みなべの里","Kishu Minabenosato","田辺市新庄町746-1","746-1 Shinjocho Tanabe-shi","熊野エリア","グルメ,ショッピング","N","33.712975","135.403091"
"599","本覚院","Hongakuin(shukubo)","伊都郡高野町大字高野山618","618 Oaza Koyasan  Koya-cho Itogun","高野山エリア","宿泊,グルメ","N","34.219963","135.598831"
"600","株式会社くまの薬局御坊店","Kumano Pharmacy Co., Ltd. Goboten","御坊市薗263-3小林ﾋﾞﾙ1階","1F Kobayashi Bldg., 263-3 Sono Gobo-shi","有田・湯浅・日高エリア","ショッピング","N","33.892841","135.154404"
"601","緑ヶ丘オートサービス","Midorigaoka Auto Service","新宮市緑ｹ丘1丁目8-41","1-8-41 Midorigaoka Shingu-shi","熊野エリア","ショッピング","N","33.719456","135.991882"
"602","さくらの薬局","Sakurano Pharmacy","西牟婁郡上富田町市ﾉ瀬2504-57","2504-57 Ichinose Kamitonda-cho Nishimurogun","白浜・串本エリア","ショッピング","N","33.716122","135.466156"
"603","だるまや","Darumaya","西牟婁郡白浜町1335-42","1335-42  Shirahama-cho Nishimurogun","白浜・串本エリア","グルメ","N","33.669189","135.402939"
"604","岩出障害児者相談・支援センター","Iwade Support Center for Handicapped Persons","岩出市宮71-1ﾊﾟｽﾄﾗﾙﾋﾞﾙ 1階","1F Pastoral Bldg., 71-1 Miya Iwade-shi","和歌山市エリア","その他","N","34.254452","135.312302"
"605","モリユキ","Moriyuki","東牟婁郡串本町串本2080-4","2080-4 Kushimoto Kushimoto-cho Higashimurogun","白浜・串本エリア","ショッピング","N","33.47665","135.784393"
"606","和歌山中央幼稚園","Wakayama Chuoh Kindergarten","岩出市波分32","32 Habu Iwade-shi","和歌山市エリア","その他","N","34.272232","135.303055"
"607","エル時計店","El Tokeiten","田辺市稲成町3165ﾊﾟﾋﾞﾘｵﾝｼﾃｨ田辺店B館","B-kan, Pavilion City Tanabe-ten , 3165 Inaricho Tanabe-shi","熊野エリア","ショッピング","N","33.744808","135.375824"
"608","有限会社儀兵衛","Gihei Ltd.","田辺市芳養松原1丁目7-23","1-7-23 Hayamatsubara Tanabe-shi","熊野エリア","グルメ","N","33.746307","135.354279"
"609","ちゃりんこルート２６","Charinko Rout 26","和歌山市中55-1","55-1 Naka Wakayama-shi","和歌山市エリア","ショッピング","N","34.260715","135.144485"
"610","株式会社吹上デンキ","Fukiage Denki Co., Ltd.","和歌山市金龍寺丁67","67 Kinryujicho Wakayama-shi","和歌山市エリア","ショッピング","N","34.219242","135.165405"
"611","マリーナシティ海釣り公園","Marina City Umizuri Park","和歌山市毛見1535-3つり堀事務所","Tsuribori Jimusho, 1535-3 Kemi Wakayama-shi","和歌山市エリア","観光スポット,その他","N","34.155052","135.178772"
"612","芝崎電気店","Shibasaki Electric Shop","田辺市東陽44-25","44-25 Toyo Tanabe-shi","熊野エリア","ショッピング","N","33.728203","135.390945"
"613","Ｆオート","F Auto","田辺市明洋2丁目23","2-23 Meiyo Tanabe-shi","熊野エリア","ショッピング","N","33.74065","135.360001"
"614","ジャニス","Janis","海南市名高532-12海南駅前一番街","Kainan Ekimae Ichibangai, 532-12 Nataka Kainan-shi","和歌山市エリア","その他","N","34.154114","135.211884"
"615","田甫モータース","Tambo Motors","有田郡有田川町大字下津野450","450 Oaza Shimotsuno  Aridagawa-cho Aridagun","有田・湯浅・日高エリア","ショッピング","N","34.066666","135.218735"
"616","セレモール那賀","Seremoll Naka","紀の川市田中馬場169-1","169-1 Tanakababa Kinokawa-shi","和歌山市エリア","その他","N","34.26693","135.356354"
"617","有限会社エヌ・ワークス","N Works Ltd.","有田市箕島879-5","879-5 Minoshima Arida-shi","有田・湯浅・日高エリア","ショッピング","N","34.085079","135.125046"
"618","プライム学習塾","Prime Cram School","日高郡みなべ町芝377-15","377-15 Shiba Minabe-cho Hidakagun","有田・湯浅・日高エリア","その他","N","33.767818","135.323547"
"619","わかやま歴史館・和歌山市観光土産品センター","Wakayama City Tourism Souvenir Center","和歌山市一番丁3和歌山城内","3 Ichibancho Wakayama-shi","和歌山市エリア","グルメ,ショッピング,観光スポット,その他","N","34.227993","135.172134"
"620","かわい鍼灸整骨院","Kawai Acupuncture Osteopathic Clinic","伊都郡かつらぎ町大字笠田東398-4","398-4 Oaza Kasedahigashi  Katsuragi-cho Itogun","高野山エリア","その他","N","34.288429","135.479355"
"621","尾崎電気店","Ozakidenkiten","西牟婁郡白浜町堅田966-1","966-1 Katata Shirahama-cho Nishimurogun","白浜・串本エリア","その他","N","33.668385","135.37645"
"622","西正寺","Saishoji Temple","和歌山市和歌浦中1丁目3-6","1-3-6 Wakauranaka Wakayama-shi","和歌山市エリア","観光スポット,その他","N","34.192432","135.168854"
"623","オリックスレンタカー田辺店","Olix Rent-A-Car Tanabeten","田辺市湊657","657 Minato Tanabe-shi","熊野エリア","その他","N","33.733875","135.382874"
"624","井上塾","Inoue Cram Scool","海南市重根715-1","715-1 Shikone Kainan-shi","和歌山市エリア","その他","N","34.156315","135.247513"
"625","本広寺","Honkoji Temple","新宮市新宮656本広寺様方","C/O Honkoji, 656 Shingu Shingu-shi","熊野エリア","観光スポット,その他","N","33.727852","135.985397"
"626","岡オートサイクル","Oka Auto Cycle","和歌山市園部942-6","942-6 Sonobe Wakayama-shi","和歌山市エリア","ショッピング","N","34.262184","135.189896"
"627","Ｔｓｗｅｅｔｓ","T.sweets","新宮市徐福2-2-4","2-2-4 Jofuku Shingu-shi","熊野エリア","ショッピング","N","33.72456","135.995758"
"628","アムール洋品部","Amu-ru Yohinbu","新宮市仲之町3-2 - 13ｱﾑｰﾙ様方","C/O Amour, 3-2-13 Nakanocho Shingu-shi","熊野エリア","ショッピング","N","33.728889","135.990356"
"629","サイクルショップまるやま","Cycle Shop Maruyama","岩出市新田広芝319-11","319-11 Shindenhiroshiba Iwade-shi","和歌山市エリア","ショッピング","N","34.274769","135.328369"
"630","勝専寺","Shosenji Temple","日高郡みなべ町南道107","107 Minamido Minabe-cho Hidakagun","有田・湯浅・日高エリア","観光スポット,その他","N","33.769115","135.318192"
"631","中田写真館","Nakata Photo Studio","伊都郡高野町大字高野山515","515 Oaza Koyasan  Koya-cho Itogun","高野山エリア","その他","N","34.213566","135.596146"
"632","清水獣医科病院","Shimizu Veterinarian Clinic","東牟婁郡太地町大字森浦551-83","551-83 Oaza Moriura  Taiji-cho Higashimurogun","熊野エリア","その他","N","33.592838","135.936615"
"633","隅田歯科医院","Suda Dental Clinic","橋本市隅田町垂井73","73 Sudachotarui Hashimoto-shi","高野山エリア","その他","N","34.33955","135.646286"
"634","川福燃料東和歌山","Kawafuku Nenryo Higashi-wakayama Gas station","和歌山市吉田392","392 Yoshida Wakayama-shi","和歌山市エリア","その他","N","34.236046","135.187912"
"635","坂田石油","Sakata Sekiyu Gas station","橋本市岸上406","406 Kishigami Hashimoto-shi","高野山エリア","その他","N","34.31369","135.586502"
"636","和歌山米油販売　四ケ郷給油所","Wakayama Beiyu Hambai, Shikago SS","和歌山市松島97-1","97-1 Matsushima Wakayama-shi","和歌山市エリア","その他","N","34.245522","135.208359"
"637","ＹＮＤデザイン事務所","YND Design Office","和歌山市小野町1丁目27武部ﾏﾝｼｮﾝ1階","1F Takebe Mansion, 1-27 Onomachi Wakayama-shi","和歌山市エリア","その他","N","34.231724","135.16777"
"638","和歌山米油販売　本社","Wakayama Beiyu Hambai, Head Office","和歌山市次郎丸7","7 Jiromaru Wakayama-shi","和歌山市エリア","ショッピング","N","34.254986","135.153671"
"639","マサキ珈琲","Masaki Coffee","和歌山市中島546-1","546-1 Nakajima Wakayama-shi","和歌山市エリア","グルメ","N","34.208199","135.187485"
"640","万福寺","Mampukuj Temple","和歌山市松江西3丁目2-38","3-2-38 Matsuenishi Wakayama-shi","和歌山市エリア","観光スポット,その他","N","34.249004","135.124741"
"641","温山荘園","Onzansoen","海南市船尾370","370 Funo Kainan-shi","和歌山市エリア","観光スポット","N","34.157879","135.194473"
"642","ワコールショップＲＩＫＡ","Wacoal Shop RIKA","岩出市中迫147ﾐﾚﾆｱｼﾃｨ岩出店 1階"," 1F MILLENIA CITY Supermarket Iwade store, 147 Nakabusa Iwade-shi","和歌山市エリア","ショッピング","N","34.25993","135.314346"
"643","和歌山電鉄　貴志駅","Wakayama Electric Railway Kishi Station","紀の川市貴志川町神戸803","803 Kishigawacho Koudo Kinokawa-shi","和歌山市エリア","公共交通","N","34.210476","135.311386"
"644","和歌山電鉄　伊太祈曽駅","Wakayama Electric Railway Idakiso Station","和歌山市伊太祈曽73","73 Idakiso Wakayama-shi","和歌山市エリア","公共交通","N","34.204556","135.251999"
"645","センザキ薬局","Senzaki Pharmacy","田辺市高雄1丁目14-34","1-14-34 Takao Tanabe-shi","熊野エリア","ショッピング","N","33.734825","135.379456"
"646","ようのき療整院","Yonoki Ryosei-in clinic","和歌山市北町25ｱｰﾊﾞﾝﾊｲﾂ1階","1F Urban Heights, 25 Kitamachi Wakayama-shi","和歌山市エリア","その他","N","34.236305","135.17308"
"647","きんかわ接骨院","Kinkawa Orthopedic Clinic","日高郡美浜町大字和田1146","1146 Oaza Wada Mihama-cho Hidakagun","有田・湯浅・日高エリア","その他","N","33.8955","135.130295"
"648","明光旅行社","Meiko Ryokosha","西牟婁郡白浜町堅田1385-6","1385-6 Katata Shirahama-cho Nishimurogun","白浜・串本エリア","その他","N","33.676079","135.392883"
"649","ポートインくじら浜","Port inn Kujirahama","東牟婁郡太地町大字太地2902-5","2902-5 Oaza Taiji Taiji-cho Higashimurogun","熊野エリア","グルメ","N","33.59977","135.942825"
"650","メルヘン","Marchen","西牟婁郡富田町生馬599-2","599-2 Ikuma Kamitonda-cho Nishimurogun","白浜・串本エリア","グルメ","N","33.669189","135.402939"
"651","ＴｏｎＴｏｎ","TonTon","橋本市紀見ｹ丘2丁目3-1","2-3-1 Kimigaoka Hashimoto-shi","高野山エリア","グルメ","N","34.365749","135.610001"
"652","セシボン","C'est Si Bon","御坊市藤田町吉田850-2","850-2 Fujitacho Yoshida Gobo-shi","有田・湯浅・日高エリア","グルメ","N","33.906826","135.167358"
"653","ＮＴＴ西日本　公園前ビル","NTT WEST Koen-mae Building","和歌山市一番丁5","5 Ichibancho Wakayama-shi","和歌山市エリア","その他","N","34.229412","135.175308"
"654","ＮＴＴ西日本　京橋別館","NTT WEST Kyobashi Bekkan","和歌山市十一番丁54","54 Juichibancho Wakayama-shi","和歌山市エリア","その他","N","34.231838","135.174866"
"655","松山整骨院","Matsuyama osteopathic clinic","和歌山市園部870","870 Sonobe Wakayama-shi","和歌山市エリア","その他","N","34.262787","135.194168"
"656","大浦整骨院","Oura osteopathic clinic","橋本市三石台1丁目3-1ﾌｫﾚｽﾄはしもと1階","Forest Hashimoto 1F, 1-3-1 Mitsuishidai Hashimoto-shi","高野山エリア","その他","N","34.355465","135.602783"
"657","園部接骨院","Sonobe orthopedic clinic","和歌山市園部433-5","433-5 Sonobe, Wakayama-shi","和歌山市エリア","その他","N","34.26614","135.188522"
"658","ホテル浦島案内所","Hotel Urashima information center","東牟婁郡那智勝浦町大字勝浦字中ﾉ町442番地19","442-19 Nakanocho, Katsuura Nachikatsuuracho, Higashimuro-gun","熊野エリア","宿泊","N","33.633389","135.94487"
"659","カーショップ・ユーズ","Car Shop Yu's","紀の川市東国分430‐2","430-2 Higashikokubun, Kinokawa-shi","和歌山市エリア","その他","N","34.267345","135.342926"
"660","中央鈑金塗装所","Chuo sheet-metal processing and painting","有田郡有田川町大字徳田178‐3","178-3 Tokuda, Aridagawacho, Arida-gun","有田・湯浅・日高エリア","その他","N","34.064877","135.249619"
"661","テイクオート","Take Auto","和歌山市築港4丁目5","4-5 Cikko, Wakayama-shi","和歌山市エリア","その他","N","34.221943","135.152664"
"662","ユーオートボディ","U-Auto Body","和歌山市川辺149","149 Kawabe, Wakayama-shi","和歌山市エリア","その他","N","34.25547","135.261963"
"663","ふじや商店","Fujiya Shoten","紀の川市粉河1797","1797 Kokawa, Kinokawa-shi","和歌山市エリア","ショッピング","N","34.2742","135.403763"
"664","殿山自動車","Tonoyama auto","西牟婁郡 上富田町朝来1314‐1","1314-1 Asso, Kamitondacho, Nishimuro-gun","白浜・串本エリア","その他","N","33.694313","135.418961"
"665","紀和ホンダ株式会社","Kiwa Honda Co., Ltd.","橋本市学文路57‐1","57-1 Kamuro, Hashimoto-shi","高野山エリア","その他","N","34.292686","135.57254"
"666","白浜温泉旅館協同組合","Shirahamaonsen inns cooperative","西牟婁郡白浜町1650‐1","1650-1 Shirahamacho, Nishimuro-gun","白浜・串本エリア","その他","N","33.669189","135.402939"
"667","ブルーライド","Blue Ride","田辺市宝来町21-14","21-14 Horaicho, Tanabe-shi","熊野エリア","その他","N","33.734226","135.387604"
"668","天徳院","Tentokuin(shukubo)","伊都郡高野町大字高野山370","370 Koyasan, Koyacho, Ito-gun","高野山エリア","宿泊,グルメ","N","34.206608","135.584122"
"669","和歌山外国語専門学校","Wakayama foreign language school","和歌山市駿河町21","21 Surugamachi, Wakayama-shi","和歌山市エリア","その他","N","34.233353","135.173828"
"670","潮風の休憩所","Shiokazeno Kyukeijo","東牟婁郡串本町潮岬2865ｰ1","2865-1 Shionomisaki, Kushimotocho, Higashimuro-gun","白浜・串本エリア","観光スポット,その他","N","33.447922","135.760422"
"671","株式会社シゲオカ","Shigeoka Co., Ltd.","橋本市神野々898","898 Konono, Hashimoto-shi","高野山エリア","その他","N","34.306259","135.578506"
"672","国民宿舎くろ潮","Kokuminshukusya Kuroshio","有田市宮崎町1562","1562 Miyazakicho, Arida-shi","有田・湯浅・日高エリア","宿泊","N","34.077488","135.103058"
"673","上西薬局","Uenishi pharmacy","西牟婁郡 白浜町2184","2184 Shirahamacho, Nishimuro-gun","白浜・串本エリア","その他","N","33.669189","135.402939"
"674","南海橋本自動車学校","Nankaihashimoto driving school","橋本市野88","88 No, Hashimoto-shi","高野山エリア","その他","N","34.313953","135.595947"
"675","ミスタータイヤマンとみはら","Mr Tireman Tomihara","紀の川市打田63‐1","63-1 Uchita, Kinokawa-shi","和歌山市エリア","その他","N","34.256638","135.372879"
"676","ブティックＨ２Ｏ","Boutique H2O","田辺市下万呂577‐1Sunfest PLAZA 1階 ﾃﾅﾝﾄ","SunfestPLAZA 1F tenant, 577-1 Shimomaro, Tanabe-shi","熊野エリア","ショッピング","N","33.739887","135.392075"
"677","道の駅椿はなの湯","Michinoeki Tsubakihananoyu","西牟婁郡白浜町椿1058‐1","1058-1 Tsubaki, Shirahamacho, Nishimuro-gun","白浜・串本エリア","グルメ,ショッピング,観光スポット,その他","N","33.60191","135.388779"
"678","夢飛行","Yumehiko","海南市名高537‐4堀田ﾋﾞﾙ 2階","Hotta Bldg. 2F, 537-4 Nataka, Kainan-shi","和歌山市エリア","その他","N","34.154724","135.211487"
"679","おしゃれ空間","Oshare kukan","日高郡日高町大字荊木3‐9おしゃれ空間","Osyare kukan, 3-9 Ibaraki, Hidagacho, Hidaka-gun","有田・湯浅・日高エリア","その他","N","33.922497","135.150696"
"680","潮音寺","choon temple","西牟婁郡すさみ町江住959","959 Esumi, Susamicho, Nishimuro-gun","白浜・串本エリア","観光スポット,その他","N","33.515518","135.601379"
"681","和歌山国際厚生学院","Wakayama kokusai kosei gakuin","和歌山市北野229‐2","229-2 Kitano, Wakayama-shi","和歌山市エリア","その他","N","34.264881","135.244278"
"682","Ｍ・Ｋ・ｆａｒｍ","M.K. farm","和歌山市中ﾉ店南ﾉ丁10","10 Minaminocho, Nakanotana, Wakayama-shi","和歌山市エリア","ショッピング","N","34.233524","135.175919"
"683","キタノヤ化粧品店","Kitanoya cosmetics store","東牟婁郡串本町串本940‐2","940-2 Kushimoto, Kushimotocho Higashimuro-gun ","白浜・串本エリア","ショッピング","N","33.469299","135.780228"
"684","伊勢部柿本神社","Isebekakimoto shrine","海南市日方600","600 Hikata, Kainan-shi","和歌山市エリア","観光スポット,その他","N","34.162743","135.213791"
"685","婦久家","Fukuya","海南市多田121","121 Ota, Kainan-shi","和歌山市エリア","グルメ","N","34.176479","135.232269"
"686","ＰＣハウスＫｉｔ","PC house kit","有田郡有田川町大字下津野1228‐6","1228-6 Shimotsuno, Aridagawacho, Arida-gun","有田・湯浅・日高エリア","ショッピング","N","34.06086","135.212326"
"687","はーとぼっくす工房","Heart box workshop","和歌山市布施屋729","729 Hoshiya, Wakayama-shi","和歌山市エリア","ショッピング","N","34.243839","135.256836"
"688","メガネストック勝浦店","Eye glasses stock Katsuura store","東牟婁郡 那智勝浦町大字天満1丁目75田中旦ﾋﾞﾙ 1階","Tanaka Akira Bldg. 1F, 1-75 Tenman, Nachikatsuuracho, Higashimuro-gun","熊野エリア","ショッピング","N","33.632053","135.936066"
"689","ＲＯＳＳＯ","Rosso","和歌山市次郎丸57‐1ﾈｵﾊｲﾂ次郎丸 1階","Neo Heights Jiromaru 1F, 57-1 Jiromaru, Wakayama-shi","和歌山市エリア","その他","N","34.254738","135.148102"
