[
{"id":1,"店舗名":"紀三井寺","店舗名（英語）":"Kimiidera Temple","住所":"和歌山市紀三井寺1201","住所（英語）":"1201 Kimiidera, Wakayama-shi","検索条件エリア":"和歌山市エリア","カテゴリ（まとめ）":"観光スポット,その他","SSID種類":"L","lat":34.183601,"lng":135.191711},
{"id":2,"店舗名":"シマ商店","店舗名（英語）":"Shima Shoten Food Shop","住所":"和歌山市和歌浦南3-5-19","住所（英語）":"3-5-19 Wakauraminami, Wakayama-shi","検索条件エリア":"和歌山市エリア","カテゴリ（まとめ）":"グルメ,ショッピング","SSID種類":"N","lat":34.185242,"lng":135.170593},
{"id":3,"店舗名":"コーヒーハウスノッティパイン","店舗名（英語）":"Coffee House Knotty Pine","住所":"和歌山市吹上2-4-4","住所（英語）":"2-4-4 Fukiage, Wakayama-shi","検索条件エリア":"和歌山市エリア","カテゴリ（まとめ）":"グルメ","SSID種類":"N","lat":34.221096,"lng":135.170181},
{"id":4,"店舗名":"三年坂モカ","店舗名（英語）":"Sannenzaka MOCA Cafe","住所":"和歌山市片岡町1丁目1-23","住所（英語）":"1-1-23 Kataokacho, Wakayama-shi","検索条件エリア":"和歌山市エリア","カテゴリ（まとめ）":"グルメ","SSID種類":"N","lat":34.225182,"lng":135.174438},
{"id":5,"店舗名":"レストランカフェデサフィナード","店舗名（英語）":"Restaurant Cafe Desafinado","住所":"和歌山市紀三井寺807-2","住所（英語）":"807-2 Kimiidera, Wakayama-shi","検索条件エリア":"和歌山市エリア","カテゴリ（まとめ）":"グルメ","SSID種類":"N","lat":34.188656,"lng":135.181854},
{"id":6,"店舗名":"ホテルはやし","店舗名（英語）":"Hotel Hayashi","住所":"和歌山市紀三井寺673","住所（英語）":"673 Kimiidera, Wakayama-shi","検索条件エリア":"和歌山市エリア","カテゴリ（まとめ）":"宿泊","SSID種類":"N","lat":34.18499,"lng":135.187424},
{"id":7,"店舗名":"産直市場よってっていなり店","店舗名（英語）":"Farmer's market Sanchoku Ichiba Yottette, Inari","住所":"田辺市稲成町270-1","住所（英語）":"270-1 Inaricho, Tanabe-shi","検索条件エリア":"熊野エリア","カテゴリ（まとめ）":"グルメ,ショッピング","SSID種類":"N","lat":33.741989,"lng":135.374359},
{"id":8,"店舗名":"産直市場よってって貴志川店","店舗名（英語）":"Farmer's market Sanchoku Ichiba Yottette, Kishigawa","住所":"紀の川市貴志川町前田166","住所（英語）":"166 Maeda, Kishigawacho, Kinokawa-shi","検索条件エリア":"和歌山市エリア","カテゴリ（まとめ）":"グルメ,ショッピング","SSID種類":"N","lat":34.22377,"lng":135.322586},
{"id":9,"店舗名":"バールヌメロオンセ","店舗名（英語）":"Bar Numero Once (No. 11)","住所":"和歌山市十一番丁16","住所（英語）":"16 Juichibancho, Wakayama-shi","検索条件エリア":"和歌山市エリア","カテゴリ（まとめ）":"グルメ","SSID種類":"L","lat":34.2323,"lng":135.175293},
{"id":10,"店舗名":"和歌山バス　紀伊駅前定期券発売所","店舗名（英語）":"Wakayama Bus season ticket shop","住所":"紀の川市北野410-3","住所（英語）":"410-3 Kitano, Kinokawa-shi","検索条件エリア":"和歌山市エリア","カテゴリ（まとめ）":"公共交通","SSID種類":"N","lat":34.284973,"lng":135.385361},
{"id":11,"店舗名":"酒のワールド　橋本店","店舗名（英語）":"Sake no World Hashimoto store, liquor shop","住所":"橋本市隅田町河瀬429","住所（英語）":"429 Kawase, Shudacho, Hashimoto-shi","検索条件エリア":"高野山エリア","カテゴリ（まとめ）":"ショッピング","SSID種類":"L","lat":34.323391,"lng":135.62822},
{"id":12,"店舗名":"酒のワールド　次郎丸ストア","店舗名（英語）":"Sake no World Jiromaru store, liquor shop","住所":"和歌山市次郎丸17","住所（英語）":"17 Jiromaru, Wakayama-shi","検索条件エリア":"和歌山市エリア","カテゴリ（まとめ）":"ショッピング","SSID種類":"L","lat":34.254635,"lng":135.151215},
{"id":13,"店舗名":"山下時計店","店舗名（英語）":"Yamashita Tokeiten Watch Store","住所":"和歌山市本町3-31","住所（英語）":"3-31 Honmachi, Wakayama-shi","検索条件エリア":"和歌山市エリア","カテゴリ（まとめ）":"ショッピング","SSID種類":"N","lat":34.235359,"lng":135.174667},
{"id":14,"店舗名":"双子島荘","店舗名（英語）":"Futagojimaso Hotel","住所":"和歌山市雑賀崎599","住所（英語）":"599 Saikazaki, Wakayama-shi","検索条件エリア":"和歌山市エリア","カテゴリ（まとめ）":"宿泊","SSID種類":"N","lat":34.191654,"lng":135.141403},
{"id":15,"店舗名":"丸源ラーメン田辺店","店舗名（英語）":"Marugen Ramen Restaurant, Tanabe","住所":"田辺市上の山1-6-11","住所（英語）":"1-6-11 Uenoyama, Tanabe-shi","検索条件エリア":"熊野エリア","カテゴリ（まとめ）":"グルメ","SSID種類":"N","lat":33.736027,"lng":135.365952},
{"id":16,"店舗名":"まいどおおきに田辺新庄食堂","店舗名（英語）":"Maidookini restaurant, Tanabe-shinjyo","住所":"田辺市新庄町1977-1","住所（英語）":"1977-1 Shinjocho, Tanabe-shi","検索条件エリア":"熊野エリア","カテゴリ（まとめ）":"グルメ","SSID種類":"N","lat":33.717064,"lng":135.404175},
{"id":17,"店舗名":"赤から紀伊田辺店","店舗名（英語）":"Akakara Restaurant, Kiitanabe","住所":"田辺市上の山1丁目2-18","住所（英語）":"1-2-18 Uenoyama, Tanabe-shi","検索条件エリア":"熊野エリア","カテゴリ（まとめ）":"グルメ","SSID種類":"N","lat":33.736794,"lng":135.368637},
{"id":18,"店舗名":"まいどおおきに御坊財部食堂","店舗名（英語）":"Maidookini restaurant, Gobo-takara","住所":"御坊市湯川町財部70-2","住所（英語）":"70-2 Takara, Yukawacho, Gobo-shi","検索条件エリア":"有田・湯浅・日高エリア","カテゴリ（まとめ）":"グルメ","SSID種類":"N","lat":33.902966,"lng":135.149612},
{"id":19,"店舗名":"まいどおおきに新宮佐野食堂","店舗名（英語）":"Maidookini restaurant, Shingu-sano","住所":"新宮市佐野3-11-19","住所（英語）":"3-11-19 Sano, Shingu-shi","検索条件エリア":"熊野エリア","カテゴリ（まとめ）":"グルメ","SSID種類":"N","lat":33.674515,"lng":135.970322},
{"id":20,"店舗名":"丸源ラーメン御膳松店","店舗名（英語）":"Marugen Ramen Restaurant, Gozenmatsu","住所":"和歌山市湊1827-6","住所（英語）":"1827-6 Minato, Wakayama-shi","検索条件エリア":"和歌山市エリア","カテゴリ（まとめ）":"グルメ","SSID種類":"N","lat":34.236523,"lng":135.154083},
{"id":21,"店舗名":"炭火焼肉屋さかい岩出店","店舗名（英語）":"Sumibiyakinikuya restaurant Sakai,Iwade","住所":"岩出市中島872-2","住所（英語）":"872-2 Nakajima, Iwade-shi","検索条件エリア":"和歌山市エリア","カテゴリ（まとめ）":"グルメ","SSID種類":"N","lat":34.258621,"lng":135.29953},
{"id":22,"店舗名":"割烹　恵比寿","店舗名（英語）":"Kappo Restaurant Ebisu","住所":"和歌山市黒田261-2","住所（英語）":"261-2 Kuroda, Wakayama-shi","検索条件エリア":"和歌山市エリア","カテゴリ（まとめ）":"グルメ","SSID種類":"L","lat":34.236649,"lng":135.197968},
{"id":23,"店舗名":"ビジネスホテル圭","店舗名（英語）":"Business Hotel Kei","住所":"和歌山市紀三井寺738-2","住所（英語）":"738-2 Kimiidera, Wakayama-shi","検索条件エリア":"和歌山市エリア","カテゴリ（まとめ）":"宿泊","SSID種類":"L","lat":34.187965,"lng":135.18541},
{"id":24,"店舗名":"中国酒家くぅくぅ","店舗名（英語）":"Chinese restaurant Kuku","住所":"和歌山市元寺町2丁目13番地","住所（英語）":"2-13 Motoderamachi, Wakayama-shi","検索条件エリア":"和歌山市エリア","カテゴリ（まとめ）":"グルメ","SSID種類":"L","lat":34.235756,"lng":135.177124},
{"id":25,"店舗名":"和粋彩いずみ","店舗名（英語）":"Japanese restaurant Wasuisai Izumi","住所":"和歌山市十番丁59ﾗｲｵﾝｽﾞﾏﾝｼｮﾝ1F","住所（英語）":"Lions Mansion 1F, 59 Jubancho, Wakayama-shi","検索条件エリア":"和歌山市エリア","カテゴリ（まとめ）":"グルメ","SSID種類":"N","lat":34.230846,"lng":135.176392},
{"id":26,"店舗名":"ゆりかわ商店","店舗名（英語）":"Yurikawa stationary shop ","住所":"和歌山市吹上4-1-51","住所（英語）":"4-1-51 Fukiage, Wakayama-shi","検索条件エリア":"和歌山市エリア","カテゴリ（まとめ）":"ショッピング","SSID種類":"N","lat":34.216251,"lng":135.17041},
{"id":27,"店舗名":"ホテルアバローム紀の国","店舗名（英語）":"Hotel Avalorm Kino-kuni","住所":"和歌山市湊通丁北2丁目1-2","住所（英語）":"2-1-2 Minatotorichokita, Wakayama-shi","検索条件エリア":"和歌山市エリア","カテゴリ（まとめ）":"宿泊","SSID種類":"L","lat":34.224079,"lng":135.167114},
{"id":28,"店舗名":"イオンモール和歌山","店舗名（英語）":"AEONMALL Wakayama","住所":"和歌山市中字楠谷573","住所（英語）":"573 Nakaazakusutani, Wakayama-shi","検索条件エリア":"和歌山市エリア","カテゴリ（まとめ）":"グルメ,ショッピング","SSID種類":"L","lat":34.261799,"lng":135.147034},
{"id":29,"店舗名":"アムールミーモ店","店舗名（英語）":"AMORE MiiMo store","住所":"和歌山市南桶屋町10番地","住所（英語）":"10 Minamiokeyamachi, Wakayama-shi","検索条件エリア":"和歌山市エリア","カテゴリ（まとめ）":"ショッピング","SSID種類":"L","lat":34.235344,"lng":135.175095},
{"id":30,"店舗名":"文房創庫オーヤマ","店舗名（英語）":"Oyama stationary store","住所":"和歌山市橋向丁17-1","住所（英語）":"17-1 Hashimukaicho, Wakayama-shi","検索条件エリア":"和歌山市エリア","カテゴリ（まとめ）":"ショッピング","SSID種類":"N","lat":34.227226,"lng":135.183945},
{"id":31,"店舗名":"焼肉でん　新宮店","店舗名（英語）":"Yakiniku restaurant Den, Shingu","住所":"新宮市新宮3615-5","住所（英語）":"3615-5 Shingu, Shingu-shi","検索条件エリア":"熊野エリア","カテゴリ（まとめ）":"グルメ","SSID種類":"L","lat":33.712086,"lng":135.987061},
{"id":32,"店舗名":"焼肉でん　御坊店","店舗名（英語）":"Yakiniku restaurant Den, Gobo","住所":"御坊市湯川町財部812-2","住所（英語）":"812-2 Takara, Yukawacho, Gobo-shi","検索条件エリア":"有田・湯浅・日高エリア","カテゴリ（まとめ）":"グルメ","SSID種類":"L","lat":33.900505,"lng":135.151474},
{"id":33,"店舗名":"焼肉でん　田辺店","店舗名（英語）":"Yakiniku restaurant Den, Tanabe","住所":"田辺市新庄町2155-1","住所（英語）":"2155-1 Shinjocho, Tanabe-shi","検索条件エリア":"熊野エリア","カテゴリ（まとめ）":"グルメ","SSID種類":"N","lat":33.717918,"lng":135.402634},
{"id":34,"店舗名":"焼肉でん　西浜店","店舗名（英語）":"Yakiniku restaurant Den, Nishihama","住所":"和歌山市西浜466-1","住所（英語）":"466-1 Nishihama, Wakayama-shi","検索条件エリア":"和歌山市エリア","カテゴリ（まとめ）":"グルメ","SSID種類":"N","lat":34.201237,"lng":135.157578},
{"id":35,"店舗名":"カフェ＆レスト　紀和紀伊店","店舗名（英語）":"Café and restaurant Kiwa, Kii","住所":"和歌山市弘西773-17","住所（英語）":"773-17 Hironishi, Wakayama-shi","検索条件エリア":"和歌山市エリア","カテゴリ（まとめ）":"グルメ","SSID種類":"N","lat":34.267807,"lng":135.243881},
{"id":36,"店舗名":"北の町１９番地","店舗名（英語）":"Café Kitanomachi No.19","住所":"和歌山市中ﾉ店北ﾉ丁10-1","住所（英語）":"10-1 Kitanocho, Nakanotana, Wakayama-shi","検索条件エリア":"和歌山市エリア","カテゴリ（まとめ）":"グルメ","SSID種類":"N","lat":34.235313,"lng":135.175903},
{"id":37,"店舗名":"新和歌ロッジ","店舗名（英語）":"Shinwaka Lodge guesthouse","住所":"和歌山市新和歌浦2-3","住所（英語）":"2-3 Shinwakaura, Wakayama-shi","検索条件エリア":"和歌山市エリア","カテゴリ（まとめ）":"宿泊","SSID種類":"N","lat":34.185745,"lng":135.156937},
{"id":38,"店舗名":"ＦＬＥＸ","店舗名（英語）":"Flex sports gym","住所":"和歌山市和歌浦東4-4","住所（英語）":"4-4 Wakaurahigashi, Wakayama-shi","検索条件エリア":"和歌山市エリア","カテゴリ（まとめ）":"その他","SSID種類":"L","lat":34.187763,"lng":135.177963},
{"id":39,"店舗名":"マクドナルド紀三井寺店","店舗名（英語）":"McDonald's, Kimiidera","住所":"和歌山市小雑賀762-1","住所（英語）":"762-1 Kozaika, Wakayama-shi","検索条件エリア":"和歌山市エリア","カテゴリ（まとめ）":"グルメ","SSID種類":"N","lat":34.197922,"lng":135.185989},
{"id":40,"店舗名":"マクドナルド宮街道店","店舗名（英語）":"McDonald's Restaurant,  Miyakaido","住所":"和歌山市秋月285-1","住所（英語）":"285-1 Akizuki, Wakayama-shi","検索条件エリア":"和歌山市エリア","カテゴリ（まとめ）":"グルメ","SSID種類":"N","lat":34.230682,"lng":135.204346},
{"id":41,"店舗名":"マクドナルド四ヶ郷店","店舗名（英語）":"McDonald's, Shikago","住所":"和歌山市加納319-7","住所（英語）":"319-7 Kano, Wakayama-shi","検索条件エリア":"和歌山市エリア","カテゴリ（まとめ）":"グルメ","SSID種類":"N","lat":34.244167,"lng":135.206848},
{"id":42,"店舗名":"マクドナルド４２号海南店","店舗名（英語）":"McDonald's restaurant, Kainan Route 42","住所":"海南市船尾238-1","住所（英語）":"238-1 Funo, Kainan-shi","検索条件エリア":"和歌山市エリア","カテゴリ（まとめ）":"グルメ","SSID種類":"N","lat":34.159203,"lng":135.201767},
{"id":43,"店舗名":"ＨＯＴＥＬ　きのくに","店舗名（英語）":"HOTEL Kinokuni","住所":"和歌山市松江北7丁目10-8","住所（英語）":"7-10-8 Matsuekita, Wakayama-shi","検索条件エリア":"和歌山市エリア","カテゴリ（まとめ）":"宿泊","SSID種類":"N","lat":34.252857,"lng":135.124908},
{"id":44,"店舗名":"ぶらくり丁商店街","店舗名（英語）":"Burakuri chō Shopping street ","住所":"和歌山市本町1丁目","住所（英語）":"1 Honmachi, Wakayama-shi","検索条件エリア":"和歌山市エリア","カテゴリ（まとめ）":"グルメ,ショッピング,その他","SSID種類":"N","lat":34.233303,"lng":135.174347},
{"id":45,"店舗名":"よこい","店舗名（英語）":"Yokoi Restaurant","住所":"和歌山市太田44-6","住所（英語）":"44-6 Oda, Wakayama-shi","検索条件エリア":"和歌山市エリア","カテゴリ（まとめ）":"グルメ","SSID種類":"N","lat":34.225479,"lng":135.193985},
{"id":46,"店舗名":"磯賀屋","店舗名（英語）":"Isokaya Nori, dried laver seaweed store","住所":"和歌山市加太1469","住所（英語）":"1469 Kada Wakayama-shi","検索条件エリア":"和歌山市エリア","カテゴリ（まとめ）":"ショッピング","SSID種類":"L","lat":34.276546,"lng":135.074188},
{"id":47,"店舗名":"オークワ　新宮仲之町店","店舗名（英語）":"Okuwa Shingunakanocho","住所":"新宮市谷王子町418-1","住所（英語）":"418-1 Taniojicho, Shingu-shi","検索条件エリア":"熊野エリア","カテゴリ（まとめ）":"グルメ,ショッピング","SSID種類":"L","lat":33.728191,"lng":135.988419},
{"id":48,"店舗名":"オークワ　新宮駅前店","店舗名（英語）":"Okuwa Shingu Ekimae","住所":"新宮市蓬莱2-1-1","住所（英語）":"2-1-1 Horai, Shingu-shi","検索条件エリア":"熊野エリア","カテゴリ（まとめ）":"グルメ,ショッピング","SSID種類":"L","lat":33.7258,"lng":135.996719},
{"id":49,"店舗名":"オークワ　古座川店","店舗名（英語）":"Okuwa Kozagawa","住所":"東牟婁郡古座川町高池64","住所（英語）":"64 Takaike, Kozagawa-cho Higashimuro-gun","検索条件エリア":"白浜・串本エリア","カテゴリ（まとめ）":"グルメ,ショッピング","SSID種類":"L","lat":33.532391,"lng":135.814468},
{"id":50,"店舗名":"オークワ　串本店","店舗名（英語）":"Okuwa Kushimototen","住所":"東牟婁郡串本町串本40-22","住所（英語）":"40-22 Kushimoto, Kushimoto-cho Higashimuro-gun","検索条件エリア":"白浜・串本エリア","カテゴリ（まとめ）":"グルメ,ショッピング","SSID種類":"L","lat":33.47504,"lng":135.782272},
{"id":51,"店舗名":"オークワ　日置店","店舗名（英語）":"Okuwa Hiki","住所":"西牟婁郡白浜町日置45","住所（英語）":"45 Hiki, Shirahama-cho Nishimuro-gun","検索条件エリア":"白浜・串本エリア","カテゴリ（まとめ）":"グルメ,ショッピング","SSID種類":"L","lat":33.569489,"lng":135.449722},
{"id":52,"店舗名":"オークワ　オーシティ田辺店","店舗名（英語）":"Okuwa Oshititanabe","住所":"田辺市東山1-5-1","住所（英語）":"1-5-1 Higashiyama, Tanabe-shi","検索条件エリア":"熊野エリア","カテゴリ（まとめ）":"グルメ,ショッピング","SSID種類":"L","lat":33.728722,"lng":135.388626},
{"id":53,"店舗名":"オークワ　桃山店","店舗名（英語）":"Okuwa Momoyama","住所":"紀の川市桃山町最上153-14","住所（英語）":"153-14 Momoyamacho Mogami, Kinokawa-shi","検索条件エリア":"和歌山市エリア","カテゴリ（まとめ）":"グルメ,ショッピング","SSID種類":"L","lat":34.238827,"lng":135.342606},
{"id":54,"店舗名":"オークワ　湯浅店","店舗名（英語）":"Okuwa Yuasa","住所":"有田郡湯浅町湯浅1852","住所（英語）":"1852 Yuasa, Yuasa-cho Arida-gun","検索条件エリア":"有田・湯浅・日高エリア","カテゴリ（まとめ）":"グルメ,ショッピング","SSID種類":"L","lat":34.041283,"lng":135.187134},
{"id":55,"店舗名":"スーパーセンターオークワ　パームシティ和歌山店","店舗名（英語）":"Okuwa SuC Palm City Wakayama","住所":"和歌山市中野31-1","住所（英語）":"31-1 Nakano, Wakayama-shi","検索条件エリア":"和歌山市エリア","カテゴリ（まとめ）":"グルメ,ショッピング","SSID種類":"L","lat":34.255093,"lng":135.139786},
{"id":56,"店舗名":"オークワ　パビリオンシティ田辺店","店舗名（英語）":"Okuwa Pavilion City Tanabe","住所":"田辺市稲成町新江原3165","住所（英語）":"Sinehara 3165 Inaricho, Tanabe-shi","検索条件エリア":"熊野エリア","カテゴリ（まとめ）":"グルメ,ショッピング","SSID種類":"L","lat":33.747883,"lng":135.378357},
{"id":57,"店舗名":"スーパーセンターオークワ　有田川店","店舗名（英語）":"Okuwa SuC Aridagawa","住所":"有田郡有田川町天満407-1","住所（英語）":"407-1 Temma, Aridagawa-cho Arida-gun","検索条件エリア":"有田・湯浅・日高エリア","カテゴリ（まとめ）":"グルメ,ショッピング","SSID種類":"L","lat":34.060692,"lng":135.208969},
{"id":58,"店舗名":"オークワ　紀三井寺店","店舗名（英語）":"Okuwa Kimiidera","住所":"和歌山市毛見薮下19","住所（英語）":"Yabusita19 Kemi, Wakayama-shi","検索条件エリア":"和歌山市エリア","カテゴリ（まとめ）":"グルメ,ショッピング","SSID種類":"L","lat":34.163319,"lng":135.189346},
{"id":59,"店舗名":"オークワ　貴志川店","店舗名（英語）":"Okuwa Kishigawa","住所":"紀の川市貴志川町神戸205-1","住所（英語）":"205-1 Kishigawacho Kodo, Kinokawa-shi","検索条件エリア":"和歌山市エリア","カテゴリ（まとめ）":"グルメ,ショッピング","SSID種類":"L","lat":34.217098,"lng":135.316025},
{"id":60,"店舗名":"オークワ　粉河店","店舗名（英語）":"Okuwa Kokawa","住所":"紀の川市粉河762","住所（英語）":"762 Kokawa, Kinokawa-shi","検索条件エリア":"和歌山市エリア","カテゴリ（まとめ）":"グルメ,ショッピング","SSID種類":"L","lat":34.267307,"lng":135.405624},
{"id":61,"店舗名":"オークワ　みなべ店","店舗名（英語）":"Okuwa Minabe","住所":"日高郡みなべ町芝227-1","住所（英語）":"227-1 Shiba, Minabe-cho Hidaka-gun","検索条件エリア":"有田・湯浅・日高エリア","カテゴリ（まとめ）":"グルメ,ショッピング","SSID種類":"L","lat":33.768219,"lng":135.326645},
{"id":62,"店舗名":"オークワ　かつらぎ店","店舗名（英語）":"Okuwa Katsuragi","住所":"伊都郡かつらぎ町佐野881-1","住所（英語）":"881-1 Saya, Katsuragi-cho Ito-gun","検索条件エリア":"高野山エリア","カテゴリ（まとめ）":"グルメ,ショッピング","SSID種類":"L","lat":34.292439,"lng":135.487152},
{"id":63,"店舗名":"オークワ　岩出西店","店舗名（英語）":"Okuwa Iwadenishi","住所":"岩出市中黒641-1","住所（英語）":"641-1 Nakakuro, Iwade-shi","検索条件エリア":"和歌山市エリア","カテゴリ（まとめ）":"グルメ,ショッピング","SSID種類":"L","lat":34.264317,"lng":135.286255},
{"id":64,"店舗名":"オークワ　本社中島店","店舗名（英語）":"Okuwa Honshanakajima","住所":"和歌山市中島185-3","住所（英語）":"185-3 Nakajima, Wakayama-shi","検索条件エリア":"和歌山市エリア","カテゴリ（まとめ）":"グルメ,ショッピング","SSID種類":"L","lat":34.207752,"lng":135.186356},
{"id":65,"店舗名":"オークワ　ロマンシティ御坊店","店舗名（英語）":"Okuwa Romain City Gobo","住所":"御坊市湯川町財部181","住所（英語）":"181 Yukawacho Takara, Gobo-shi","検索条件エリア":"有田・湯浅・日高エリア","カテゴリ（まとめ）":"グルメ,ショッピング","SSID種類":"L","lat":33.897621,"lng":135.148758},
{"id":66,"店舗名":"オークワ　ミレニアシティ岩出店","店舗名（英語）":"Okuwa Millenia City Iwade","住所":"岩出市中迫147","住所（英語）":"147 Nakabusa, Iwade-shi","検索条件エリア":"和歌山市エリア","カテゴリ（まとめ）":"グルメ,ショッピング","SSID種類":"L","lat":34.25993,"lng":135.314346},
{"id":67,"店舗名":"オークワ　オー・ストリート　和歌山北バイパス店","店舗名（英語）":"Okuwa OS Wakayamakita bypass","住所":"和歌山市平井154","住所（英語）":"154 Hirai, Wakayama-shi","検索条件エリア":"和歌山市エリア","カテゴリ（まとめ）":"グルメ,ショッピング","SSID種類":"L","lat":34.260197,"lng":135.169296},
{"id":68,"店舗名":"オークワ　白浜堅田店","店舗名（英語）":"Okuwa Shirahamakatata","住所":"西牟婁郡白浜町堅田塩谷2056-1","住所（英語）":"Sioya 2056-1 Katata, Shirahama-cho Nishimuro-gun","検索条件エリア":"白浜・串本エリア","カテゴリ（まとめ）":"グルメ,ショッピング","SSID種類":"L","lat":33.680035,"lng":135.375351},
{"id":69,"店舗名":"オークワ　高野口店","店舗名（英語）":"Okuwa Koyaguchi","住所":"橋本市高野口町伏原139-1","住所（英語）":"139-1 Koyaguchicho Fushihara, Hashimoto-shi","検索条件エリア":"高野山エリア","カテゴリ（まとめ）":"グルメ,ショッピング","SSID種類":"L","lat":34.304405,"lng":135.569626},
{"id":70,"店舗名":"オークワ　大浦街道店","店舗名（英語）":"Okuwa Ourakaido","住所":"和歌山市湊西ﾉ坪45-1","住所（英語）":"45-1 Minato, Wakayama-shi","検索条件エリア":"和歌山市エリア","カテゴリ（まとめ）":"グルメ,ショッピング","SSID種類":"L","lat":34.234539,"lng":135.155258},
{"id":71,"店舗名":"オークワ　箕島店","店舗名（英語）":"Okuwa Minoshima","住所":"有田市新堂10-3","住所（英語）":"10-3 Shindo, Arida-shi","検索条件エリア":"有田・湯浅・日高エリア","カテゴリ（まとめ）":"グルメ,ショッピング","SSID種類":"L","lat":34.085003,"lng":135.12822},
{"id":72,"店舗名":"オークワ　海南幡川店","店舗名（英語）":"Okuwa Kainanhatagawa","住所":"海南市幡川下九条105","住所（英語）":"Sitakuzyou105 Hatagawa, Kainan-shi","検索条件エリア":"和歌山市エリア","カテゴリ（まとめ）":"グルメ,ショッピング","SSID種類":"L","lat":34.15173,"lng":135.230499},
{"id":73,"店舗名":"メッサオークワ　ガーデンパーク和歌山店","店舗名（英語）":"Okuwa MESA Garden Park Wakayama","住所":"和歌山市松江向鵜ﾉ島1469-1","住所（英語）":"Mukiunozima1469-1 Matsue, Wakayama-shi","検索条件エリア":"和歌山市エリア","カテゴリ（まとめ）":"グルメ,ショッピング","SSID種類":"L","lat":34.240803,"lng":135.136826},
{"id":74,"店舗名":"スーパーセンターオークワ　上富田店","店舗名（英語）":"Okuwa SuC Kamitonda","住所":"西牟婁郡上富田町朝来154-1","住所（英語）":"154-1 Asso, Kamitonda-cho Nishimuro-gun","検索条件エリア":"白浜・串本エリア","カテゴリ（まとめ）":"グルメ,ショッピング","SSID種類":"L","lat":33.698959,"lng":135.427658},
{"id":75,"店舗名":"スーパーセンターオークワ　南紀店","店舗名（英語）":"Okuwa SuC Nanki","住所":"新宮市佐野3-11-19","住所（英語）":"3-11-19 Sano, Shingu-shi","検索条件エリア":"熊野エリア","カテゴリ（まとめ）":"グルメ,ショッピング","SSID種類":"L","lat":33.674515,"lng":135.970322},
{"id":76,"店舗名":"オークワ　オー・ストリート　橋本彩の台店","店舗名（英語）":"Okuwa OS HashimotoAyanodai","住所":"橋本市あやの台1-50-3","住所（英語）":"1-50-3 Ayanodai, Hashimoto-shi","検索条件エリア":"高野山エリア","カテゴリ（まとめ）":"グルメ,ショッピング","SSID種類":"L","lat":34.336273,"lng":135.652252},
{"id":77,"店舗名":"オークワ　和歌山中之島店","店舗名（英語）":"Okuwa Wakayamanakanoshima","住所":"和歌山市納定104","住所（英語）":"104 Nojo, Wakayama-shi","検索条件エリア":"和歌山市エリア","カテゴリ（まとめ）":"グルメ,ショッピング","SSID種類":"L","lat":34.238796,"lng":135.189026},
{"id":78,"店舗名":"オークワ　六十谷店","店舗名（英語）":"Okuwa Musota","住所":"和歌山市六十谷217-1","住所（英語）":"217-1 Musota, Wakayama-shi","検索条件エリア":"和歌山市エリア","カテゴリ（まとめ）":"グルメ,ショッピング","SSID種類":"L","lat":34.261417,"lng":135.202637},
{"id":79,"店舗名":"メッサオークワ　高松店","店舗名（英語）":"Okuwa MESA Takamatsu","住所":"和歌山市西高松1-7-88","住所（英語）":"1-7-88 Nishitakamatsu, Wakayama-shi","検索条件エリア":"和歌山市エリア","カテゴリ（まとめ）":"グルメ,ショッピング","SSID種類":"L","lat":34.207653,"lng":135.169907},
{"id":80,"店舗名":"オークワ　すさみ店","店舗名（英語）":"Okuwa Susami","住所":"西牟婁郡すさみ町周参見3766","住所（英語）":"3766 Susami, Susami-cho Nishimuro-gun","検索条件エリア":"白浜・串本エリア","カテゴリ（まとめ）":"グルメ,ショッピング","SSID種類":"L","lat":33.554203,"lng":135.49559},
{"id":81,"店舗名":"オークワ　海南野上店","店舗名（英語）":"Okuwa Kainannokami","住所":"海南市野上中420","住所（英語）":"420 Nokami Naka, Kainan-shi","検索条件エリア":"和歌山市エリア","カテゴリ（まとめ）":"グルメ,ショッピング","SSID種類":"L","lat":34.163715,"lng":135.282837},
{"id":82,"店舗名":"スーパーセンターオークワ　橋本店","店舗名（英語）":"Okuwa SuC Hashimoto","住所":"橋本市妻2-2-25","住所（英語）":"2-2-25 Tsuma, Hashimoto-shi","検索条件エリア":"高野山エリア","カテゴリ（まとめ）":"グルメ,ショッピング","SSID種類":"L","lat":34.319771,"lng":135.622894},
{"id":83,"店舗名":"スーパーセンターオークワ　海南店","店舗名（英語）":"Okuwa SuC Kainan","住所":"海南市築地1-1","住所（英語）":"1-1 Tsukiji, Kainan-shi","検索条件エリア":"和歌山市エリア","カテゴリ（まとめ）":"グルメ,ショッピング","SSID種類":"L","lat":34.153084,"lng":135.210388},
{"id":84,"店舗名":"オークワ　屋形店","店舗名（英語）":"Okuwa Yakata","住所":"和歌山市屋形町4-29","住所（英語）":"4-29 Yakatamachi, Wakayama-shi","検索条件エリア":"和歌山市エリア","カテゴリ（まとめ）":"グルメ,ショッピング","SSID種類":"L","lat":34.224842,"lng":135.178009},
{"id":85,"店舗名":"スーパーセンターオークワ　セントラルシティ和歌山店","店舗名（英語）":"Okuwa SuC Central City Wakayama","住所":"和歌山市小雑賀805-1","住所（英語）":"805-1 Kozaika, Wakayama-shi","検索条件エリア":"和歌山市エリア","カテゴリ（まとめ）":"グルメ,ショッピング","SSID種類":"L","lat":34.195702,"lng":135.183716},
{"id":86,"店舗名":"ＧｕｅｓｔＨｏｕｓｅ　ＲＩＣＯ","店舗名（英語）":"Guest House RICO","住所":"和歌山市新通5-6","住所（英語）":"5-6 Shintori, Wakayama-shi","検索条件エリア":"和歌山市エリア","カテゴリ（まとめ）":"宿泊","SSID種類":"L","lat":34.231922,"lng":135.179794},
{"id":87,"店舗名":"味千拉麺　和歌山北インター店","店舗名（英語）":"Ajisen ramen restaurant, Wakayama  Kita Interchange","住所":"和歌山市田屋105ｺﾒﾘ駐車場内","住所（英語）":"On the site of the parking lot of Komeri, 105 Taya, Wakayama-shi","検索条件エリア":"和歌山市エリア","カテゴリ（まとめ）":"グルメ","SSID種類":"N","lat":34.258495,"lng":135.22551},
{"id":88,"店舗名":"日本赤十字社和歌山医療センター","店舗名（英語）":"Japanese Red Cross Wakayama Medical Center","住所":"和歌山市小松原通4-20","住所（英語）":"4-20 Komatsubaradori, Wakayama-shi","検索条件エリア":"和歌山市エリア","カテゴリ（まとめ）":"その他","SSID種類":"N","lat":34.220116,"lng":135.168777},
{"id":89,"店舗名":"ぶらくり丁　大通り商店街","店舗名（英語）":"Burakuri chō  ohdori Shopping street ","住所":"和歌山市元寺町1","住所（英語）":"1 Motoderamachi, Wakayama-shi","検索条件エリア":"和歌山市エリア","カテゴリ（まとめ）":"グルメ,ショッピング,その他","SSID種類":"N","lat":34.234455,"lng":135.177475},
{"id":90,"店舗名":"島崎家具","店舗名（英語）":"Shimazaki furniture shop","住所":"和歌山市黒田1丁目4-1","住所（英語）":"1-4-1 Kuroda, Wakayama-shi","検索条件エリア":"和歌山市エリア","カテゴリ（まとめ）":"ショッピング","SSID種類":"N","lat":34.233368,"lng":135.1922},
{"id":91,"店舗名":"わかやま旅案内所","店舗名（英語）":"Wakayama Travel Information","住所":"和歌山市七番丁26-1ﾀﾞｲﾜﾛｲﾈｯﾄﾎﾃﾙ2F","住所（英語）":"Daiwa Roynet Hotel 2F, 26-1 Shichibancho, Wakayama-shi","検索条件エリア":"和歌山市エリア","カテゴリ（まとめ）":"グルメ,ショッピング,観光スポット,その他","SSID種類":"N","lat":34.230457,"lng":135.172684},
{"id":92,"店舗名":"トレーディングカードショップ　マナソース","店舗名（英語）":"Manasosu Trading Card shop ","住所":"和歌山市太田1-6-11","住所（英語）":"1-6-11 Oda, Wakayama-shi","検索条件エリア":"和歌山市エリア","カテゴリ（まとめ）":"ショッピング","SSID種類":"L","lat":34.229877,"lng":135.192673},
{"id":93,"店舗名":"木村屋旅館","店舗名（英語）":"Kimuraya Ryokan","住所":"和歌山市新和歌浦2-2","住所（英語）":"2-2 Shinwakaura, Wakayama-shi","検索条件エリア":"和歌山市エリア","カテゴリ（まとめ）":"宿泊","SSID種類":"N","lat":34.185745,"lng":135.156937},
{"id":94,"店舗名":"東ぶらくり丁商店街","店舗名（英語）":"Higashi burakurichō Shopping street ","住所":"和歌山市新堺丁25","住所（英語）":"25 Shinsakaicho, Wakayama-shi","検索条件エリア":"和歌山市エリア","カテゴリ（まとめ）":"グルメ,ショッピング,その他","SSID種類":"N","lat":34.234581,"lng":135.179688},
{"id":95,"店舗名":"イズミヤ和歌山店","店舗名（英語）":"Supremarket Izumiya Wakayama Store","住所":"和歌山市新生町7-20","住所（英語）":"7-20 Shinseicho, Wakayama-shi","検索条件エリア":"和歌山市エリア","カテゴリ（まとめ）":"グルメ,ショッピング","SSID種類":"N","lat":34.221626,"lng":135.187576},
{"id":96,"店舗名":"グリル　エイト","店舗名（英語）":"Restaurant Grill Eight","住所":"和歌山市八番丁32","住所（英語）":"32 Hachibancho, Wakayama-shi","検索条件エリア":"和歌山市エリア","カテゴリ（まとめ）":"グルメ","SSID種類":"N","lat":34.230625,"lng":135.16864},
{"id":97,"店舗名":"きのくに信用金庫　本店営業部","店舗名（英語）":"Kinokuni Shinkin Bank, central branch","住所":"和歌山市本町2-38","住所（英語）":"2-38 Honmachi, Wakayama-shi","検索条件エリア":"和歌山市エリア","カテゴリ（まとめ）":"その他","SSID種類":"N","lat":34.234436,"lng":135.174667},
{"id":98,"店舗名":"きのくに信用金庫　白浜支店","店舗名（英語）":"Kinokuni Shinkin Bank, Shirahama branch","住所":"西牟婁郡白浜町911-8","住所（英語）":"911-8 Shirahamacho, Nishimuro-gun","検索条件エリア":"白浜・串本エリア","カテゴリ（まとめ）":"その他","SSID種類":"N","lat":33.669189,"lng":135.402939},
{"id":99,"店舗名":"ばり馬和歌山四ヶ郷店","店舗名（英語）":"Ramen Restaurant Bariuma Wakayama Shikago Restaurant","住所":"和歌山市加納204-2","住所（英語）":"204-2 Kano, Wakayama-shi","検索条件エリア":"和歌山市エリア","カテゴリ（まとめ）":"グルメ","SSID種類":"N","lat":34.245415,"lng":135.204605},
{"id":100,"店舗名":"ばり馬和歌山新堀店","店舗名（英語）":"Ramen Restaurant Bariuma Wakayama S hinbori Restaurant","住所":"和歌山市手平6-108-1","住所（英語）":"6-108-1 Tebira, Wakayama-shi","検索条件エリア":"和歌山市エリア","カテゴリ（まとめ）":"グルメ","SSID種類":"N","lat":34.215401,"lng":135.182281},
{"id":101,"店舗名":"ばり馬和歌山岩出店","店舗名（英語）":"Restaurant Bariuma Wakayama Iwade Restaurant","住所":"岩出市川尻17-8","住所（英語）":"17-8 Kawajiri, Iwade-shi","検索条件エリア":"和歌山市エリア","カテゴリ（まとめ）":"グルメ","SSID種類":"N","lat":34.269115,"lng":135.308914},
{"id":102,"店舗名":"ばり馬和歌山紀三井寺店","店舗名（英語）":"Ramen Restaurant Bariuma Wakayama Kimiidera Restaurant","住所":"和歌山市毛見12-11","住所（英語）":"12-11 Kemi, Wakayama-shi","検索条件エリア":"和歌山市エリア","カテゴリ（まとめ）":"グルメ","SSID種類":"N","lat":34.164272,"lng":135.187134},
{"id":103,"店舗名":"海鮮せいろ蒸し勝浦","店舗名（英語）":"Restaurant Kaisen Seiromushi Katsuura","住所":"和歌山市湊45-1","住所（英語）":"45-1 Minato, Wakayama-shi","検索条件エリア":"和歌山市エリア","カテゴリ（まとめ）":"グルメ","SSID種類":"N","lat":34.215439,"lng":135.157196},
{"id":104,"店舗名":"伊酒屋　ｐｒｅｇｏ","店舗名（英語）":"Restaurant Izakaya Prego","住所":"和歌山市太田1-4‐34伊勢屋ﾋﾞﾙ1F","住所（英語）":"Iseya Building 1F, 1-4-34 Oda, Wakayama-shi","検索条件エリア":"和歌山市エリア","カテゴリ（まとめ）":"グルメ","SSID種類":"N","lat":34.230137,"lng":135.193863},
{"id":105,"店舗名":"鮨、天の","店舗名（英語）":"Sushi Restaurant Amano","住所":"和歌山市元寺町3-5","住所（英語）":"3-5 Motoderamachi, Wakayama-shi","検索条件エリア":"和歌山市エリア","カテゴリ（まとめ）":"グルメ","SSID種類":"L","lat":34.237679,"lng":135.177109},
{"id":106,"店舗名":"ビジネスホテルタツミ","店舗名（英語）":"Business Hotel Tatsumi","住所":"和歌山市紀三井寺618","住所（英語）":"618 Kimiidera, Wakayama-shi","検索条件エリア":"和歌山市エリア","カテゴリ（まとめ）":"宿泊","SSID種類":"N","lat":34.184052,"lng":135.184982},
{"id":107,"店舗名":"ファミリーショップ　クイノセ","店舗名（英語）":"Family Shop Kuinose daily necessities shop","住所":"和歌山市舟大工28","住所（英語）":"28 Funadaikumachi, Wakayama-shi","検索条件エリア":"和歌山市エリア","カテゴリ（まとめ）":"ショッピング","SSID種類":"N","lat":34.234615,"lng":135.169037},
{"id":108,"店舗名":"南海マリーナ","店舗名（英語）":"Nankai Marina","住所":"和歌山市湊1820","住所（英語）":"1820 Minato, Wakayama-shi","検索条件エリア":"和歌山市エリア","カテゴリ（まとめ）":"ショッピング,その他","SSID種類":"L","lat":34.236916,"lng":135.157547},
{"id":109,"店舗名":"和歌山県書道資料館","店舗名（英語）":"Wakayama calligraphy musium","住所":"和歌山市西汀丁61","住所（英語）":"61 Nishimigiwacho, Wakayama-shi","検索条件エリア":"和歌山市エリア","カテゴリ（まとめ）":"その他","SSID種類":"L","lat":34.228939,"lng":135.167206},
{"id":110,"店舗名":"和歌山トヨタ自動車株式会社　美園店","店舗名（英語）":"Car Dealer Wakayama Toyota Motors Misono branch ","住所":"和歌山市美園町2-65","住所（英語）":"2-65 Misonocho, Wakayama-shi","検索条件エリア":"和歌山市エリア","カテゴリ（まとめ）":"その他","SSID種類":"L","lat":34.231403,"lng":135.186325},
{"id":111,"店舗名":"和歌山トヨタ自動車株式会社フォルクスワーゲン和歌山中央","店舗名（英語）":"Wakayama Toyota, Volkswagen  Wakayama chuo, Car Dealer","住所":"和歌山市栗栖647-1","住所（英語）":"647-1 Kurusu, Wakayama-shi","検索条件エリア":"和歌山市エリア","カテゴリ（まとめ）":"その他","SSID種類":"L","lat":34.239437,"lng":135.218918},
{"id":112,"店舗名":"国立大学法人　和歌山大学","店舗名（英語）":"National University Corporation Wakayama University","住所":"和歌山市栄谷930","住所（英語）":"5 Ichibancho, Wakayama-shi","検索条件エリア":"和歌山市エリア","カテゴリ（まとめ）":"その他","SSID種類":"N","lat":34.269337,"lng":135.157089},
{"id":113,"店舗名":"松源　本店","店舗名（英語）":"Supermarket Matsugen Head Store","住所":"和歌山市吹上2丁目4番50号","住所（英語）":"2-4-50 Fukiage, Wakayama-shi","検索条件エリア":"和歌山市エリア","カテゴリ（まとめ）":"グルメ,ショッピング","SSID種類":"N","lat":34.221096,"lng":135.170181},
{"id":114,"店舗名":"松源　海南日方店","店舗名（英語）":"Supermarket Matsugen Kainanhikata Store","住所":"海南市日方上芦原1030番地","住所（英語）":"1030 Kamiashihara, Hikata, Kainan-shi","検索条件エリア":"和歌山市エリア","カテゴリ（まとめ）":"グルメ,ショッピング","SSID種類":"N","lat":34.160599,"lng":135.217484},
{"id":115,"店舗名":"松源　下津店","店舗名（英語）":"Supermarket Matsugen Shimotsu Store","住所":"海南市下津町丁65-1","住所（英語）":"65-1 Yoro Shimotsucho, Kainan-shi","検索条件エリア":"和歌山市エリア","カテゴリ（まとめ）":"グルメ,ショッピング","SSID種類":"N","lat":34.121593,"lng":135.155823},
{"id":116,"店舗名":"松源　箕島店","店舗名（英語）":"Supermarket Matsugen Minoshima Store","住所":"有田市箕島721番地の1","住所（英語）":"721-1 Minoshima, Arida-shi","検索条件エリア":"有田・湯浅・日高エリア","カテゴリ（まとめ）":"グルメ,ショッピング","SSID種類":"N","lat":34.087437,"lng":135.112717},
{"id":117,"店舗名":"松源　粉河店","店舗名（英語）":"Supermarket Matsugen Kokawa Store","住所":"紀の川市粉河785番地","住所（英語）":"785 Kokawa, Kinokawa-shi","検索条件エリア":"和歌山市エリア","カテゴリ（まとめ）":"グルメ,ショッピング","SSID種類":"N","lat":34.269657,"lng":135.40567},
{"id":118,"店舗名":"松源　妙寺店","店舗名（英語）":"Supermarket Matsugen Myoji Shop","住所":"伊都郡かつらぎ町妙寺160番地の8","住所（英語）":"160-8 Myoji, Katsuragicho, Ito-gun","検索条件エリア":"高野山エリア","カテゴリ（まとめ）":"グルメ,ショッピング","SSID種類":"N","lat":34.301003,"lng":135.529602},
{"id":119,"店舗名":"松源　吉備店","店舗名（英語）":"Supermarket Matsugen Kibi Store","住所":"有田郡有田川町下津野558番地","住所（英語）":"558 Shimotsuno, Aridagawacho, Arida-gun","検索条件エリア":"有田・湯浅・日高エリア","カテゴリ（まとめ）":"グルメ,ショッピング","SSID種類":"N","lat":34.06673,"lng":135.215576},
{"id":120,"店舗名":"松源　高野口店","店舗名（英語）":"Supermarket Matsugen Koyaguchi Store","住所":"橋本市高野口町名倉東大芝199番地の1","住所（英語）":"199-1 Higashioshiba nagura Koyaguchicho, Hashimoto-shi","検索条件エリア":"高野山エリア","カテゴリ（まとめ）":"グルメ,ショッピング","SSID種類":"N","lat":34.30497,"lng":135.554642},
{"id":121,"店舗名":"松源　栄谷店","店舗名（英語）":"Supermarket Matsugen Sakaedani Store","住所":"和歌山市延時字水口10番地の1","住所（英語）":"10-1 Mizuguchi, Nobutoki, Wakayama-shi","検索条件エリア":"和歌山市エリア","カテゴリ（まとめ）":"グルメ,ショッピング","SSID種類":"N","lat":34.252323,"lng":135.149689},
{"id":122,"店舗名":"松源　橋本店","店舗名（英語）":"Supermarket Matsugen Hashimoto Store","住所":"橋本市東家1丁目166番地の1","住所（英語）":"1-166-1 Toge, Hashimoto-shi","検索条件エリア":"高野山エリア","カテゴリ（まとめ）":"グルメ,ショッピング","SSID種類":"N","lat":34.315731,"lng":135.603592},
{"id":123,"店舗名":"松源　貴志川店","店舗名（英語）":"Supermarket Matsugen Kishigawa Store","住所":"紀の川市貴志川町神戸字野手218ｲｵﾝﾀｳﾝ貴志川ｼｮｯﾋﾟﾝｸﾞｾﾝﾀｰ内","住所（英語）":"In the Aeon Town Kishigawa Shopping Center, 218 Node, Kodo, Kishigawacho, Kinokawa-shi","検索条件エリア":"和歌山市エリア","カテゴリ（まとめ）":"グルメ,ショッピング","SSID種類":"N","lat":34.213852,"lng":135.316925},
{"id":124,"店舗名":"松源　吉礼駅前店","店舗名（英語）":"Supermarket Matsugen Kireekimae Store","住所":"和歌山市吉礼1612番地の2","住所（英語）":"1612-2 Kire, Wakayama-shi","検索条件エリア":"和歌山市エリア","カテゴリ（まとめ）":"グルメ,ショッピング","SSID種類":"N","lat":34.203873,"lng":135.236389},
{"id":125,"店舗名":"松源　湯浅店","店舗名（英語）":"Supermarket Matsugen Yuasa Store","住所":"有田郡湯浅町1658番地の1","住所（英語）":"1658-1 Yuasacho, Arida-gun","検索条件エリア":"有田・湯浅・日高エリア","カテゴリ（まとめ）":"グルメ,ショッピング","SSID種類":"N","lat":34.03249,"lng":135.178665},
{"id":126,"店舗名":"松源　海南阪井店","店舗名（英語）":"Supermarket Matsugen Kainansakai Store","住所":"海南市阪井字佃945番地の1","住所（英語）":"945-1 Tsukuda, Sakai, Kainan-shi","検索条件エリア":"和歌山市エリア","カテゴリ（まとめ）":"グルメ,ショッピング","SSID種類":"N","lat":34.160542,"lng":135.263092},
{"id":127,"店舗名":"松源　西浜店","店舗名（英語）":"Supermarket Matsugen  Nishihama Store","住所":"和歌山市西浜1026番地の1","住所（英語）":"1026-1 Nishihama, Wakayama-shi","検索条件エリア":"和歌山市エリア","カテゴリ（まとめ）":"グルメ,ショッピング","SSID種類":"N","lat":34.200897,"lng":135.154404},
{"id":128,"店舗名":"松源　岩出店","店舗名（英語）":"Supermarket Matsugen Iwade Store","住所":"岩出市大町58番地の1","住所（英語）":"58-1 Omachi, Iwade-shi","検索条件エリア":"和歌山市エリア","カテゴリ（まとめ）":"グルメ,ショッピング","SSID種類":"N","lat":34.259743,"lng":135.320694},
{"id":129,"店舗名":"松源　木ノ本店","店舗名（英語）":"Supermarket Matsugen Kinomoto Store","住所":"和歌山市木ﾉ本395-3","住所（英語）":"395-3 Kinomoto, Wakayama-shi","検索条件エリア":"和歌山市エリア","カテゴリ（まとめ）":"グルメ,ショッピング","SSID種類":"N","lat":34.260658,"lng":135.131256},
{"id":130,"店舗名":"松源　伏原店","店舗名（英語）":"Supermarket Matsugen Fushihara Store","住所":"橋本市高野口町伏原106番地","住所（英語）":"106 Fushihara, Koyaguchicho, Hashimoto-shi","検索条件エリア":"高野山エリア","カテゴリ（まとめ）":"グルメ,ショッピング","SSID種類":"N","lat":34.304279,"lng":135.570908},
{"id":131,"店舗名":"松源　元寺店","店舗名（英語）":"Supermarket Matsugen Motodera Store","住所":"和歌山市元寺町5-58ｼﾃｨﾜｶﾔﾏ内","住所（英語）":"CITY! WAKAYAMA, 5-58 Motoderamachi, Wakayama-shi","検索条件エリア":"和歌山市エリア","カテゴリ（まとめ）":"グルメ,ショッピング","SSID種類":"N","lat":34.239697,"lng":135.176407},
{"id":132,"店舗名":"松源　岩出中黒店","店舗名（英語）":"Supermarket Matsugen Iwadenakaguro Store","住所":"岩出市中黒546番","住所（英語）":"546 Nakakuro, Iwade-shi","検索条件エリア":"和歌山市エリア","カテゴリ（まとめ）":"グルメ,ショッピング","SSID種類":"N","lat":34.265678,"lng":135.284134},
{"id":133,"店舗名":"松源　御坊店","店舗名（英語）":"Supermarket Matsugen Gobo Store","住所":"御坊市薗53番4","住所（英語）":"53-4 Sono, Gobo-shi","検索条件エリア":"有田・湯浅・日高エリア","カテゴリ（まとめ）":"グルメ,ショッピング","SSID種類":"N","lat":33.894161,"lng":135.150421},
{"id":134,"店舗名":"松源　西庄店","店舗名（英語）":"Supermarket Matsugen Nishinosho Store","住所":"和歌山市西庄妙見409番1","住所（英語）":"409-1 Myoken, Nishinosho, Wakayama-shi","検索条件エリア":"和歌山市エリア","カテゴリ（まとめ）":"グルメ,ショッピング","SSID種類":"N","lat":34.258095,"lng":135.114365},
{"id":135,"店舗名":"松源　内原店","店舗名（英語）":"Supremarket Matsugen Uchihara Store","住所":"和歌山市内原763番1","住所（英語）":"763-1 Uchihara, Wakayama-shi","検索条件エリア":"和歌山市エリア","カテゴリ（まとめ）":"グルメ,ショッピング","SSID種類":"N","lat":34.173759,"lng":135.195404},
{"id":136,"店舗名":"松源　和歌山インター店","店舗名（英語）":"Matsugen Supermarket Matsugen Wakayama inter Store","住所":"和歌山市田屋138番地","住所（英語）":"138 Taya, Wakayama-shi","検索条件エリア":"和歌山市エリア","カテゴリ（まとめ）":"グルメ,ショッピング","SSID種類":"N","lat":34.258495,"lng":135.22551},
{"id":137,"店舗名":"松源　橋本林間店","店舗名（英語）":"Supermarket Matsugen Hashimoto-rinkan Store","住所":"橋本市三石台1丁目2番1号","住所（英語）":"1-2-1 Mitsuishidai, Hashimoto-shi","検索条件エリア":"高野山エリア","カテゴリ（まとめ）":"グルメ,ショッピング","SSID種類":"N","lat":34.357407,"lng":135.603668},
{"id":138,"店舗名":"中国料理　可口楽","店舗名（英語）":"Chinese restaurant KaKura","住所":"和歌山市美園町5-4-9","住所（英語）":"5-4-9 Misonocho, Wakayama-shi","検索条件エリア":"和歌山市エリア","カテゴリ（まとめ）":"グルメ","SSID種類":"L","lat":34.229626,"lng":135.190506},
{"id":139,"店舗名":"本町商店街","店舗名（英語）":"Honmachi Shopping street","住所":"和歌山市本町2-10","住所（英語）":"2-10 Honmachi, Wakayama-shi","検索条件エリア":"和歌山市エリア","カテゴリ（まとめ）":"グルメ,ショッピング,その他","SSID種類":"N","lat":34.23473,"lng":135.174225},
{"id":140,"店舗名":"まつや食堂","店舗名（英語）":"Restaurant Matsuya Shokudo","住所":"和歌山市雑賀屋町東ﾉ丁64","住所（英語）":"64 Higashinocho, Saikayamachi, Wakayama-shi","検索条件エリア":"和歌山市エリア","カテゴリ（まとめ）":"グルメ","SSID種類":"N","lat":34.225872,"lng":135.169571},
{"id":141,"店舗名":"フクちゃん","店舗名（英語）":"Restaurant Fukuchan","住所":"和歌山市中島185-5ｺｰﾎﾟ中島104","住所（英語）":"Corpo Nakajima Rm.104, 185-5 Nakajima, Wakayama-shi","検索条件エリア":"和歌山市エリア","カテゴリ（まとめ）":"グルメ","SSID種類":"N","lat":34.207752,"lng":135.186356},
{"id":142,"店舗名":"ハネ馬","店舗名（英語）":"Haneuma, Japanese style pub","住所":"和歌山市十番丁72","住所（英語）":"72 Jubancho, Wakayama-shi","検索条件エリア":"和歌山市エリア","カテゴリ（まとめ）":"グルメ","SSID種類":"N","lat":34.230759,"lng":135.17572},
{"id":143,"店舗名":"廣井時計店","店舗名（英語）":"Hiroi clock shop","住所":"和歌山市打越町1-16","住所（英語）":"1-16 Uchikoshicho, Wakayama-shi","検索条件エリア":"和歌山市エリア","カテゴリ（まとめ）":"ショッピング","SSID種類":"N","lat":34.205395,"lng":135.17659},
{"id":144,"店舗名":"Ｋａ　ｒ　ｔｏｆｆｅｌ（かるとふぇる）","店舗名（英語）":"Restaurant Kartoffel","住所":"和歌山市太田2-14-9ｱｽﾞﾏ太田ﾋﾞﾙ","住所（英語）":"Azuma Oda Building, 2-14-9 Oda, Wakayama-shi","検索条件エリア":"和歌山市エリア","カテゴリ（まとめ）":"グルメ","SSID種類":"N","lat":34.23214,"lng":135.195892},
{"id":145,"店舗名":"南海和歌山市駅　観光案内所","店舗名（英語）":"Tourist Information Center Nankai Wakayamashi Station","住所":"和歌山市東蔵前丁3-6","住所（英語）":"3-6 Higashikuramaecho, Wakayama-shi","検索条件エリア":"和歌山市エリア","カテゴリ（まとめ）":"公共交通,観光スポット,その他","SSID種類":"N","lat":34.236134,"lng":135.166672},
{"id":146,"店舗名":"加太観光協会　観光案内所","店舗名（英語）":"Kada Tourist Association Tourist Information Center","住所":"和歌山市加太1067","住所（英語）":"1067 Kada, Wakayama-shi","検索条件エリア":"和歌山市エリア","カテゴリ（まとめ）":"観光スポット,その他","SSID種類":"L","lat":34.27993,"lng":135.082779},
{"id":147,"店舗名":"活魚料理いなさ","店舗名（英語）":"Fresh Seafood Restaurant Inasa","住所":"和歌山市加太196","住所（英語）":"196 Kada, Wakayama-shi","検索条件エリア":"和歌山市エリア","カテゴリ（まとめ）":"グルメ","SSID種類":"N","lat":34.274841,"lng":135.070618},
{"id":148,"店舗名":"大阪屋　ひいなの湯","店舗名（英語）":"Osakaya Hiina no Yu Ryokan","住所":"和歌山市加太142","住所（英語）":"142 Kada, Wakayama-shi","検索条件エリア":"和歌山市エリア","カテゴリ（まとめ）":"宿泊,グルメ","SSID種類":"L","lat":34.274841,"lng":135.070618},
{"id":149,"店舗名":"巴旅館","店舗名（英語）":"Tomoe Ryokan","住所":"和歌山市本町3丁目8","住所（英語）":"3-8 Honmachi, Wakayama-shi","検索条件エリア":"和歌山市エリア","カテゴリ（まとめ）":"宿泊","SSID種類":"N","lat":34.235439,"lng":135.174469},
{"id":150,"店舗名":"ホテル　ポルト・ディ・マーレ","店舗名（英語）":"Hotel Porto di Mare","住所":"和歌山市中47-2","住所（英語）":"47-2 Naka, Wakayama-shi","検索条件エリア":"和歌山市エリア","カテゴリ（まとめ）":"宿泊","SSID種類":"N","lat":34.260715,"lng":135.144485},
{"id":151,"店舗名":"南海電鉄　林間田園都市駅","店舗名（英語）":"Nankai Electric Railway Rinkandenentoshi Sta. (NK75)","住所":"橋本市三石台1-1-1","住所（英語）":"1-1-1 Mitsuishidai, Hashimoto-shi","検索条件エリア":"高野山エリア","カテゴリ（まとめ）":"公共交通","SSID種類":"L","lat":34.355465,"lng":135.602783},
{"id":152,"店舗名":"南海電鉄　橋本駅","店舗名（英語）":"Nankai Electric Railway Hashimoto Sta. (NK77)","住所":"橋本市古佐田1-4-51","住所（英語）":"1-4-51 Kosada, Hashimoto-shi","検索条件エリア":"高野山エリア","カテゴリ（まとめ）":"公共交通","SSID種類":"L","lat":34.318375,"lng":135.616104},
{"id":153,"店舗名":"南海電鉄　極楽橋駅","店舗名（英語）":"Nankai Electric Railway Gokurakubashi Sta. (NK86)","住所":"伊都郡高野町大字高野山国有林第8林班","住所（英語）":"8 Koyasankokuyurin, Koya-cho, Ito-gun","検索条件エリア":"高野山エリア","カテゴリ（まとめ）":"公共交通","SSID種類":"L","lat":34.215015,"lng":135.587585},
{"id":154,"店舗名":"南海電鉄　和歌山市駅","店舗名（英語）":"Nankai Electric Railway Wakayamashi Sta. (NK45)","住所":"和歌山市東蔵前丁3-6","住所（英語）":"3-6 Higashikuramaecho, Wakayama-shi","検索条件エリア":"和歌山市エリア","カテゴリ（まとめ）":"公共交通","SSID種類":"L","lat":34.236134,"lng":135.166672},
{"id":155,"店舗名":"炭火やき鳥鳥々呂","店舗名（英語）":"Restaurant Sumibi Yakitori Totoro","住所":"和歌山市太田4-3-5川端ﾋﾞﾙ1F8号","住所（英語）":"Kawabata Building 1F Rm.8, 4-3-5 Oda, Wakayama-shi","検索条件エリア":"和歌山市エリア","カテゴリ（まとめ）":"グルメ","SSID種類":"N","lat":34.22887,"lng":135.195099},
{"id":156,"店舗名":"鳥々呂　福島店","店舗名（英語）":"Restaurant Totoro Fukushima","住所":"和歌山市福島487ﾙﾐﾉｰｿﾞふるい2F","住所（英語）":"Luminozo Furui 2F, 487 Fukushima, Wakayama-shi","検索条件エリア":"和歌山市エリア","カテゴリ（まとめ）":"グルメ","SSID種類":"N","lat":34.248566,"lng":135.168396},
{"id":157,"店舗名":"三八波","店舗名（英語）":"Restaurant Mihanami","住所":"和歌山市黒田2-1-25","住所（英語）":"2-1-25 Kuroda, Wakayama-shi","検索条件エリア":"和歌山市エリア","カテゴリ（まとめ）":"グルメ","SSID種類":"N","lat":34.233055,"lng":135.194534},
{"id":158,"店舗名":"炭火焼肉　なのはな","店舗名（英語）":"Sumibi Yakiniku Restaurant Nanohana","住所":"和歌山市太田1-12-31","住所（英語）":"1-12-31 Oda, Wakayama-shi","検索条件エリア":"和歌山市エリア","カテゴリ（まとめ）":"グルメ","SSID種類":"L","lat":34.231194,"lng":135.193817},
{"id":159,"店舗名":"デリシャス廣岡　吉備店","店舗名（英語）":"Supermarket Delicious Hirooka Kibi Store","住所":"有田郡有田川町天満568","住所（英語）":"568 Tenma, Aridagawacho, Arida-gun","検索条件エリア":"有田・湯浅・日高エリア","カテゴリ（まとめ）":"グルメ,ショッピング","SSID種類":"N","lat":34.061443,"lng":135.207932},
{"id":160,"店舗名":"デリシャス廣岡　保田店","店舗名（英語）":"Supermarket Delicious Hirooka Yasuda Store","住所":"有田市辻堂821","住所（英語）":"821 Tsujido, Arida-shi","検索条件エリア":"有田・湯浅・日高エリア","カテゴリ（まとめ）":"グルメ,ショッピング","SSID種類":"N","lat":34.076836,"lng":135.141861},
{"id":161,"店舗名":"焼肉三国一　湯浅店","店舗名（英語）":"Yakiniku Restaurant Sangokuichi Yuasa Restaurant","住所":"有田郡湯浅町湯浅1590","住所（英語）":"1590 Yuasa, Yuasacho, Arida-gun","検索条件エリア":"有田・湯浅・日高エリア","カテゴリ（まとめ）":"グルメ","SSID種類":"N","lat":34.03606,"lng":135.180557},
{"id":162,"店舗名":"焼肉三国一　黒田店","店舗名（英語）":"Yakiniku Restaurant Sangokuichi Kuroda Restaurant","住所":"和歌山市黒田249","住所（英語）":"249 Kuroda, Wakayama-shi","検索条件エリア":"和歌山市エリア","カテゴリ（まとめ）":"グルメ","SSID種類":"N","lat":34.238064,"lng":135.199356},
{"id":163,"店舗名":"焼肉三国一　梶取店","店舗名（英語）":"Yakiniku Restaurant Sangokuichi Kandori Restaurant","住所":"和歌山市梶取162-1","住所（英語）":"162-1 Kandori, Wakayama-shi","検索条件エリア":"和歌山市エリア","カテゴリ（まとめ）":"グルメ","SSID種類":"N","lat":34.251244,"lng":135.156067},
{"id":164,"店舗名":"焼肉三国一　海南店","店舗名（英語）":"Yakiniku Restaurant Sangokuichi Kainan Restarurant","住所":"海南市大野中621-1","住所（英語）":"621-1 Ononaka, Kainan-shi","検索条件エリア":"和歌山市エリア","カテゴリ（まとめ）":"グルメ","SSID種類":"N","lat":34.153866,"lng":135.224228},
{"id":165,"店舗名":"エバグリーン吉備店","店舗名（英語）":"Supermarket Ever Green Kibi Store","住所":"有田郡有田川町天満562","住所（英語）":"562 Tenma, Aridagawacho, Arida-gun","検索条件エリア":"有田・湯浅・日高エリア","カテゴリ（まとめ）":"グルメ,ショッピング","SSID種類":"N","lat":34.061443,"lng":135.207932},
{"id":166,"店舗名":"エバグリーン有田店","店舗名（英語）":"Supermarket Ever Green Arida Store","住所":"有田市宮崎町110-1","住所（英語）":"110-1 Miyazakicho, Arida-shi","検索条件エリア":"有田・湯浅・日高エリア","カテゴリ（まとめ）":"グルメ,ショッピング","SSID種類":"N","lat":34.077488,"lng":135.103058},
{"id":167,"店舗名":"エバグリーン広瀬店","店舗名（英語）":"Supermaarket Ever Green Hirose Store","住所":"和歌山市元町奉行丁2丁目66","住所（英語）":"2-66 Bugyocho, Motomachi, Wakayama-shi","検索条件エリア":"和歌山市エリア","カテゴリ（まとめ）":"グルメ,ショッピング","SSID種類":"N","lat":34.224167,"lng":135.184128},
{"id":168,"店舗名":"エバグリーン梶取店","店舗名（英語）":"Supermarket Ever Green Kandori Store","住所":"和歌山市梶取162-1","住所（英語）":"162-1 Kandori, Wakayama-shi","検索条件エリア":"和歌山市エリア","カテゴリ（まとめ）":"グルメ,ショッピング","SSID種類":"N","lat":34.251244,"lng":135.156067},
{"id":169,"店舗名":"エバグリーン高野口店","店舗名（英語）":"Supermarket Evergreen Koyaguchi Store","住所":"橋本市高野口町名古曽940-1","住所（英語）":"940-1 Nagoso, Koyaguchicho, Hashimoto-shi","検索条件エリア":"高野山エリア","カテゴリ（まとめ）":"グルメ,ショッピング","SSID種類":"N","lat":34.302212,"lng":135.561432},
{"id":170,"店舗名":"スーパーエバグリーン宮前店","店舗名（英語）":"Supermarket Ever Green Miyamae Store","住所":"和歌山市中島576-3","住所（英語）":"576-3 Nakajima, Wakayama-shi","検索条件エリア":"和歌山市エリア","カテゴリ（まとめ）":"グルメ,ショッピング","SSID種類":"N","lat":34.215523,"lng":135.194275},
{"id":171,"店舗名":"エバグリーン岩出中迫店","店舗名（英語）":"Supermarket Ever Green Iwadenakasako Store","住所":"岩出市中迫118-3","住所（英語）":"118-3 Nakabusa, Iwade-shi","検索条件エリア":"和歌山市エリア","カテゴリ（まとめ）":"グルメ,ショッピング","SSID種類":"N","lat":34.262299,"lng":135.31781},
{"id":172,"店舗名":"スーパーエバグリーン湯浅店","店舗名（英語）":"Supermarket Ever Green Yuasa Store","住所":"有田郡湯浅町湯浅1792","住所（英語）":"1792 Yuasa, Yuasacho, Arida-gun","検索条件エリア":"有田・湯浅・日高エリア","カテゴリ（まとめ）":"グルメ,ショッピング","SSID種類":"N","lat":34.035324,"lng":135.176682},
{"id":173,"店舗名":"エバグリーン海南店","店舗名（英語）":"Supermarket Ever Green Kainan Store","住所":"海南市重根35","住所（英語）":"35 Shikone, Kainan-shi","検索条件エリア":"和歌山市エリア","カテゴリ（まとめ）":"グルメ,ショッピング","SSID種類":"N","lat":34.154411,"lng":135.239456},
{"id":174,"店舗名":"エバグリーン田辺元町店","店舗名（英語）":"Supermarket Ever Green Tanabemotomachi Store","住所":"田辺市上の山2丁目17-22","住所（英語）":"2-17-22 Uenoyama, Tanabe-shi","検索条件エリア":"熊野エリア","カテゴリ（まとめ）":"グルメ,ショッピング","SSID種類":"N","lat":33.734276,"lng":135.363846},
{"id":175,"店舗名":"エバグリーン御坊店","店舗名（英語）":"Supermarket Ever Green  Gobo Store","住所":"御坊市湯川町財部840-1","住所（英語）":"840-1 Takara, Yukawacho, Gobo-shi","検索条件エリア":"有田・湯浅・日高エリア","カテゴリ（まとめ）":"グルメ,ショッピング","SSID種類":"N","lat":33.900803,"lng":135.159271},
{"id":176,"店舗名":"エバグリーン西庄店","店舗名（英語）":"Supermarket Ever Green Nishinosho Store","住所":"和歌山市西庄765-1","住所（英語）":"765-1 Nishinosho, Wakayama-shi","検索条件エリア":"和歌山市エリア","カテゴリ（まとめ）":"グルメ,ショッピング","SSID種類":"N","lat":34.256214,"lng":135.116119},
{"id":177,"店舗名":"エバグリーン串本店","店舗名（英語）":"Supermarket Ever　Green Kushimoto Store","住所":"東牟婁郡串本町串本字小森生1758","住所（英語）":"1758 Kushimoto Kushimotocho, Higashimuro-gun","検索条件エリア":"白浜・串本エリア","カテゴリ（まとめ）":"グルメ,ショッピング","SSID種類":"N","lat":33.469734,"lng":135.780426},
{"id":178,"店舗名":"エバグリーン宮街道店","店舗名（英語）":"Supermarket Ever Green Miyakaido Store","住所":"和歌山市秋月227-2","住所（英語）":"227-2 Akizuki, Wakayama-shi","検索条件エリア":"和歌山市エリア","カテゴリ（まとめ）":"グルメ,ショッピング","SSID種類":"N","lat":34.23119,"lng":135.204163},
{"id":179,"店舗名":"スーパーエバグリーン四ヶ郷店","店舗名（英語）":"Supermarket Ever Green Shikago Store","住所":"和歌山市加納295-1","住所（英語）":"295-1 Kano, Wakayama-shi","検索条件エリア":"和歌山市エリア","カテゴリ（まとめ）":"グルメ,ショッピング","SSID種類":"N","lat":34.243557,"lng":135.205002},
{"id":180,"店舗名":"エバグリーン紀三井寺店","店舗名（英語）":"Supermarket Ever Green Kimiidera Store","住所":"和歌山市布引743-2","住所（英語）":"743-2 Nunohiki, Wakayama-shi","検索条件エリア":"和歌山市エリア","カテゴリ（まとめ）":"グルメ,ショッピング","SSID種類":"N","lat":34.175812,"lng":135.185043},
{"id":181,"店舗名":"エバグリーン新中島店","店舗名（英語）":"Supermarket Ever Green Shinnakajima Store","住所":"和歌山市新中島124","住所（英語）":"124 Shinnakajima, Wakayama-shi","検索条件エリア":"和歌山市エリア","カテゴリ（まとめ）":"グルメ,ショッピング","SSID種類":"N","lat":34.214802,"lng":135.196808},
{"id":182,"店舗名":"スーパーエバグリーン和歌山北インター店","店舗名（英語）":"Supermarket Ever Green Wakayama Kita Interchange Store","住所":"和歌山市直川274-1","住所（英語）":"274-1 Nougawa, Wakayama-shi","検索条件エリア":"和歌山市エリア","カテゴリ（まとめ）":"グルメ,ショッピング","SSID種類":"N","lat":34.26495,"lng":135.216431},
{"id":183,"店舗名":"エバグリーンかつらぎ店","店舗名（英語）":"Supermarket Ever Green Katsuragi Store","住所":"伊都郡かつらぎ町佐野905-1","住所（英語）":"905-1 Saya, Katsuragicho, Ito-gun","検索条件エリア":"高野山エリア","カテゴリ（まとめ）":"グルメ,ショッピング","SSID種類":"N","lat":34.290627,"lng":135.485382},
{"id":184,"店舗名":"スーパーエバグリーン上富田店","店舗名（英語）":"Supermarket Ever Green Kamitonda store","住所":"西牟婁郡上富田町生馬564-1","住所（英語）":"564-1 Ikuma, Kamitondacho, Nishimuro-gun","検索条件エリア":"白浜・串本エリア","カテゴリ（まとめ）":"グルメ,ショッピング","SSID種類":"N","lat":33.691849,"lng":135.457611},
{"id":185,"店舗名":"スーパーエバグリーン福島店","店舗名（英語）":"Supermarket Ever Green Fukushima Store","住所":"和歌山市福島89-1","住所（英語）":"89-1 Fukushima, Wakayama-shi","検索条件エリア":"和歌山市エリア","カテゴリ（まとめ）":"グルメ,ショッピング","SSID種類":"N","lat":34.250607,"lng":135.160706},
{"id":186,"店舗名":"スーパーエバグリーン岩出高塚店","店舗名（英語）":"Supermarket Ever Green Iwadetakatsuka Store","住所":"岩出市高塚188-1","住所（英語）":"188-1 Takatsuka, Iwade-shi","検索条件エリア":"和歌山市エリア","カテゴリ（まとめ）":"グルメ,ショッピング","SSID種類":"N","lat":34.257111,"lng":135.323364},
{"id":187,"店舗名":"エイトマートン湯浅吉川店","店舗名（英語）":"Supermarket Eight Marton Yuasayoshikawa Store","住所":"有田郡湯浅町大字吉川70","住所（英語）":"70 Yoshikawa, Yuasacho, Arida-gun","検索条件エリア":"有田・湯浅・日高エリア","カテゴリ（まとめ）":"グルメ,ショッピング","SSID種類":"N","lat":34.051296,"lng":135.187881},
{"id":188,"店舗名":"エイトマートン有田川土生店","店舗名（英語）":"Supermarket Eight Marton Aridagawa habu Store","住所":"有田郡有田川町大字土生80-3","住所（英語）":"80-3 Habu, Aridagawacho, Arida-gun","検索条件エリア":"有田・湯浅・日高エリア","カテゴリ（まとめ）":"グルメ,ショッピング","SSID種類":"N","lat":34.055527,"lng":135.206604},
{"id":189,"店舗名":"お菓子の工房アン　内原本店","店舗名（英語）":"Confectionary Okashino Kobo Ann Uchiharahonten Store","住所":"和歌山市内原915","住所（英語）":"915 Uchihara, Wakayama-shi","検索条件エリア":"和歌山市エリア","カテゴリ（まとめ）":"グルメ,ショッピング","SSID種類":"N","lat":34.17255,"lng":135.192581},
{"id":190,"店舗名":"お菓子の工房アン　大谷店","店舗名（英語）":"Confectionary Okashino Kobo Ann Otani Shop","住所":"和歌山市大谷398-1","住所（英語）":"398-1 Otani, Wakayama-shi","検索条件エリア":"和歌山市エリア","カテゴリ（まとめ）":"グルメ,ショッピング","SSID種類":"N","lat":34.260208,"lng":135.179596},
{"id":191,"店舗名":"ぼへみあん","店舗名（英語）":"Cafe Bohemian","住所":"和歌山市本町1-15","住所（英語）":"1-15 Honmachi, Wakayama-shi","検索条件エリア":"和歌山市エリア","カテゴリ（まとめ）":"グルメ","SSID種類":"N","lat":34.233494,"lng":135.174164},
{"id":192,"店舗名":"東口食堂","店舗名（英語）":"Restaurant Higashikuchi Shokudo","住所":"和歌山市太田1-14-7","住所（英語）":"1-14 Oda, Wakayama-shi","検索条件エリア":"和歌山市エリア","カテゴリ（まとめ）":"グルメ","SSID種類":"L","lat":34.231888,"lng":135.192566},
{"id":193,"店舗名":"あたらし屋","店舗名（英語）":"Atarashiya Ryokan, fresh fish cuisine","住所":"和歌山市加太205","住所（英語）":"205 Kada, Wakayama-shi","検索条件エリア":"和歌山市エリア","カテゴリ（まとめ）":"宿泊,グルメ","SSID種類":"N","lat":34.274841,"lng":135.070618},
{"id":194,"店舗名":"フォルテワジマ第４駐車場","店舗名（英語）":"FORTE WAJIMA, Department Store, Parking 4","住所":"和歌山市本町2-15","住所（英語）":"2-15 Honmachi, Wakayama-shi","検索条件エリア":"和歌山市エリア","カテゴリ（まとめ）":"その他","SSID種類":"N","lat":34.234436,"lng":135.174667},
{"id":195,"店舗名":"Ｔ－ＬＡＢＯ","店舗名（英語）":"Rental Space T-Labo","住所":"和歌山市美園町5-4-2","住所（英語）":"5-4-2 Misonocho, Wakayama-shi","検索条件エリア":"和歌山市エリア","カテゴリ（まとめ）":"その他","SSID種類":"L","lat":34.229626,"lng":135.190506},
{"id":196,"店舗名":"宇都宮病院","店舗名（英語）":"Utsunomiya Hospital","住所":"和歌山市鳴神505-4","住所（英語）":"505-4 Narukami, Wakayama-shi","検索条件エリア":"和歌山市エリア","カテゴリ（まとめ）":"その他","SSID種類":"N","lat":34.227417,"lng":135.214447},
{"id":197,"店舗名":"和歌山インドアテニスクラブ","店舗名（英語）":"Wakayama Indoor Tennis Club","住所":"和歌山市園部1070","住所（英語）":"1070 Sonobe, Wakayama-shi","検索条件エリア":"和歌山市エリア","カテゴリ（まとめ）":"その他","SSID種類":"N","lat":34.264305,"lng":135.194519},
{"id":198,"店舗名":"テニスセンター和歌山西浜校","店舗名（英語）":"Tennis Center Wakayama Nishihamako Tennis school","住所":"和歌山市西浜903-1","住所（英語）":"903-1 Nishihama, Wakayama-shi","検索条件エリア":"和歌山市エリア","カテゴリ（まとめ）":"その他","SSID種類":"N","lat":34.200897,"lng":135.154404},
{"id":199,"店舗名":"テニスセンター和歌山岩出校","店舗名（英語）":"Tennis Center Wakayama Iwadeko Tennis school","住所":"岩出市中島820-3","住所（英語）":"820-3 Nakajima, Iwade-shi","検索条件エリア":"和歌山市エリア","カテゴリ（まとめ）":"その他","SSID種類":"N","lat":34.261723,"lng":135.296524},
{"id":200,"店舗名":"スポーツアドヴァンス岩出","店舗名（英語）":" Sports Club Advance Iwade","住所":"岩出市金池71-2","住所（英語）":"71-2 Kanaike, Iwade-shi","検索条件エリア":"和歌山市エリア","カテゴリ（まとめ）":"その他","SSID種類":"L","lat":34.273811,"lng":135.289948},
{"id":201,"店舗名":"スポーツアドヴァンスかつらぎ","店舗名（英語）":"Sports Advance Katsuragi Sports Club","住所":"紀の川市藤崎279-1","住所（英語）":"279-1 Fujisaki, Kinokawa-shi","検索条件エリア":"和歌山市エリア","カテゴリ（まとめ）":"その他","SSID種類":"L","lat":34.270073,"lng":135.426712},
{"id":202,"店舗名":"スポーツアドヴァンスむそた","店舗名（英語）":"Sports Advance Musota Sports Club","住所":"和歌山市六十谷78-5","住所（英語）":"78-5 Musota, Wakayama-shi","検索条件エリア":"和歌山市エリア","カテゴリ（まとめ）":"その他","SSID種類":"L","lat":34.259914,"lng":135.200912},
{"id":203,"店舗名":"慶風高等学校","店舗名（英語）":"Keifu High School","住所":"海草郡紀美野町田64","住所（英語）":"64 Ta, Kiminocho, Kaiso-gun","検索条件エリア":"和歌山市エリア","カテゴリ（まとめ）":"その他","SSID種類":"N","lat":34.139992,"lng":135.415924},
{"id":204,"店舗名":"民宿松林","店舗名（英語）":"Minshuku Matsubayashi ","住所":"有田市初島町浜1769-1","住所（英語）":"1769-1 Hama, Hatsushimacho, Arida-shi","検索条件エリア":"有田・湯浅・日高エリア","カテゴリ（まとめ）":"宿泊,グルメ","SSID種類":"N","lat":34.101265,"lng":135.114044},
{"id":205,"店舗名":"旬海","店舗名（英語）":"Shunkai Japanese Restaurant","住所":"和歌山市和歌浦東2-9-46","住所（英語）":"2-9-46 Wakaurahigashi, Wakayama-shi","検索条件エリア":"和歌山市エリア","カテゴリ（まとめ）":"グルメ","SSID種類":"N","lat":34.192039,"lng":135.17572},
{"id":206,"店舗名":"八十八家","店舗名（英語）":"Hachijuhachiya Restaurant","住所":"田辺市稲成町270-1-2","住所（英語）":"270-1-2 Inaricho, Tanabe-shi","検索条件エリア":"熊野エリア","カテゴリ（まとめ）":"グルメ","SSID種類":"L","lat":33.741989,"lng":135.374359},
{"id":207,"店舗名":"民宿せせらぎ","店舗名（英語）":"Minshuku Seseragi ","住所":"田辺市龍神村湯ﾉ又577-2","住所（英語）":"277-2 Ryujinmurayunomata, Tanabe-shi","検索条件エリア":"熊野エリア","カテゴリ（まとめ）":"宿泊","SSID種類":"N","lat":33.946087,"lng":135.557114},
{"id":208,"店舗名":"たまゆらの里","店舗名（英語）":"Tamayuranosato Resort Cottage","住所":"紀美野町長谷宮705","住所（英語）":"705 Hasemiya, Kiminocho","検索条件エリア":"和歌山市エリア","カテゴリ（まとめ）":"宿泊,グルメ","SSID種類":"N","lat":34.180313,"lng":135.479385},
{"id":209,"店舗名":"和歌山加太温泉　加太海月","店舗名（英語）":"Seaside Hotel Kada Kaigetsu","住所":"和歌山市加太1905","住所（英語）":"1905 Kada, Wakayama-shi","検索条件エリア":"和歌山市エリア","カテゴリ（まとめ）":"宿泊","SSID種類":"L","lat":34.268482,"lng":135.071014},
{"id":210,"店舗名":"海南市物産観光センター","店舗名（英語）":"Kainan city Souvenir Tourism center","住所":"海南市名高51-2JR海南駅構内","住所（英語）":"JR Kainan station, 51-2 Nataka, Kainan-shi","検索条件エリア":"和歌山市エリア","カテゴリ（まとめ）":"グルメ,ショッピング,観光スポット,その他","SSID種類":"N","lat":34.154312,"lng":135.212616},
{"id":211,"店舗名":"ファーストガーデン","店舗名（英語）":"Cafe First Garden","住所":"海南市名高532-14","住所（英語）":"532-14 Nataka, Kainan-shi","検索条件エリア":"和歌山市エリア","カテゴリ（まとめ）":"グルメ","SSID種類":"L","lat":34.154114,"lng":135.211884},
{"id":212,"店舗名":"黒牛茶屋","店舗名（英語）":"Kuroushi-jyaya Japanese Sake bar and shop","住所":"海南市黒江846","住所（英語）":"846 Kuroe, Kainan-shi","検索条件エリア":"和歌山市エリア","カテゴリ（まとめ）":"グルメ,ショッピング,観光スポット","SSID種類":"L","lat":34.166534,"lng":135.205688},
{"id":213,"店舗名":"黒江ぬりもの館","店舗名（英語）":"Cafe Kuroe Nurimonokan","住所":"海南市黒江680","住所（英語）":"680 Kuroe, Kainan-shi","検索条件エリア":"和歌山市エリア","カテゴリ（まとめ）":"ショッピング,観光スポット","SSID種類":"N","lat":34.161564,"lng":135.205521},
{"id":214,"店舗名":"料亭　美登利","店舗名（英語）":"Midori Japanese restaurant","住所":"海南市船尾185","住所（英語）":"185 Funoo, Kainan-shi","検索条件エリア":"和歌山市エリア","カテゴリ（まとめ）":"グルメ","SSID種類":"N","lat":34.157692,"lng":135.207504},
{"id":215,"店舗名":"ライズゴルフセンター","店舗名（英語）":"Rise Golf Center","住所":"海南市大野中1122","住所（英語）":"1122 Ononaka, Kainan-shi","検索条件エリア":"和歌山市エリア","カテゴリ（まとめ）":"その他","SSID種類":"N","lat":34.159344,"lng":135.235245},
{"id":216,"店舗名":"紀州漆器協同組合","店舗名（英語）":"Kishu lacquerware traditional industry house","住所":"海南市船尾222","住所（英語）":"222 Funoo, Kainan-shi","検索条件エリア":"和歌山市エリア","カテゴリ（まとめ）":"ショッピング,観光スポット","SSID種類":"N","lat":34.160366,"lng":135.203598},
{"id":217,"店舗名":"池庄漆器店","店舗名（英語）":"Ikesho Shikki Lacquer Ware Shop","住所":"海南市黒江692","住所（英語）":"692 Kuroe, Kainan-shi","検索条件エリア":"和歌山市エリア","カテゴリ（まとめ）":"ショッピング","SSID種類":"N","lat":34.161564,"lng":135.205521},
{"id":218,"店舗名":"とれたて広場","店舗名（英語）":" Farmer's market Toretate Hiroba","住所":"海南市重根418","住所（英語）":"418 Shikone, Kainan-shi","検索条件エリア":"和歌山市エリア","カテゴリ（まとめ）":"ショッピング","SSID種類":"N","lat":34.153923,"lng":135.245331},
{"id":219,"店舗名":"野上八幡宮","店舗名（英語）":"Nokami Hachimangu Shrine","住所":"海草郡紀美野町小畑625","住所（英語）":"625 Shobata, Kiminocho, Kaiso-gun","検索条件エリア":"和歌山市エリア","カテゴリ（まとめ）":"観光スポット,その他","SSID種類":"L","lat":34.162777,"lng":135.294006},
{"id":220,"店舗名":"海南駅前一丁目商店街","店舗名（英語）":"JR　Kainan Station Shopping street ","住所":"海南市名高555-3","住所（英語）":"555-3 Nataka, Kainan-shi","検索条件エリア":"和歌山市エリア","カテゴリ（まとめ）":"グルメ,ショッピング,公共交通,その他","SSID種類":"N","lat":34.154114,"lng":135.214783},
{"id":221,"店舗名":"国木原ゴルフ倶楽部","店舗名（英語）":"Kunikihara Golf Club","住所":"海草郡紀美野町国木原551-14","住所（英語）":"551-14 Kunikibara, Kiminocho, Kaiso-gun","検索条件エリア":"和歌山市エリア","カテゴリ（まとめ）":"その他","SSID種類":"N","lat":34.18996,"lng":135.336731},
{"id":222,"店舗名":"セミナーハウス未来塾","店舗名（英語）":"Seminar House Miraijuku, lodging facility","住所":"海草郡紀美野町田25","住所（英語）":"25 Ta, Kiminocho, Kaiso-gun","検索条件エリア":"和歌山市エリア","カテゴリ（まとめ）":"宿泊","SSID種類":"L","lat":34.139992,"lng":135.415924},
{"id":223,"店舗名":"法然寺","店舗名（英語）":"Honenji temple","住所":"海南市沖野々553","住所（英語）":"553 Okinono, Kainan-shi","検索条件エリア":"和歌山市エリア","カテゴリ（まとめ）":"観光スポット,その他","SSID種類":"L","lat":34.161488,"lng":135.277222},
{"id":224,"店舗名":"ド－シェル","店舗名（英語）":"Bakery Terrace Dooshel","住所":"海草郡紀美野町釜滝417-3","住所（英語）":"417-3 Kamataki, Kiminocho, Kaiso-gun","検索条件エリア":"和歌山市エリア","カテゴリ（まとめ）":"グルメ","SSID種類":"L","lat":34.166451,"lng":135.348511},
{"id":225,"店舗名":"藤の森不動温泉だるま湯","店舗名（英語）":"Fujinomorifudo Onsen Darumayu","住所":"海草郡紀美野町滝ﾉ川73","住所（英語）":"73 Takinogawa, Kiminocho, Kaiso-gun","検索条件エリア":"和歌山市エリア","カテゴリ（まとめ）":"宿泊,グルメ,その他","SSID種類":"L","lat":34.133507,"lng":135.431992},
{"id":226,"店舗名":"キミノーカ","店舗名（英語）":"Gelato Shop Kiminoka","住所":"海草郡紀美野町三尾川785-3","住所（英語）":"785-3 Miogawa, Kiminocho, Kaiso-gun","検索条件エリア":"和歌山市エリア","カテゴリ（まとめ）":"グルメ","SSID種類":"L","lat":34.139198,"lng":135.373062},
{"id":227,"店舗名":"釜滝薬師金剛寺","店舗名（英語）":"Kamataki Yakushi Kongoji temple","住所":"海草郡紀美野町釜滝120","住所（英語）":"120 Kamataki, Kiminocho, Kaiso-gun","検索条件エリア":"和歌山市エリア","カテゴリ（まとめ）":"観光スポット,その他","SSID種類":"L","lat":34.166451,"lng":135.348511},
{"id":228,"店舗名":"安養寺","店舗名（英語）":"Anyo-ji Temple","住所":"海南市名高420","住所（英語）":"420 Nataka, Kainan-shi","検索条件エリア":"和歌山市エリア","カテゴリ（まとめ）":"観光スポット,その他","SSID種類":"N","lat":34.150791,"lng":135.214386},
{"id":229,"店舗名":"海月旅館","店舗名（英語）":"Kaigetsu Ryokan ","住所":"海南市船尾378","住所（英語）":"378 Funo, Kainan-shi","検索条件エリア":"和歌山市エリア","カテゴリ（まとめ）":"宿泊","SSID種類":"L","lat":34.15852,"lng":135.196228},
{"id":230,"店舗名":"コ－ヒ－館　熊野路","店舗名（英語）":"Coffee House Kumanoji","住所":"紀の川市貴志川町神戸177-3","住所（英語）":"177-3 Kodo, Kishigawacho, Kinokawa-shi","検索条件エリア":"和歌山市エリア","カテゴリ（まとめ）":"グルメ","SSID種類":"N","lat":34.218372,"lng":135.316391},
{"id":231,"店舗名":"大池荘","店舗名（英語）":"Oikeso Inn","住所":"紀の川市貴志川町長山1287-1","住所（英語）":"1287-1 Nagayama, Kishigawacho, Kinokawa-shi","検索条件エリア":"和歌山市エリア","カテゴリ（まとめ）":"宿泊","SSID種類":"N","lat":34.209251,"lng":135.292709},
{"id":232,"店舗名":"アミューズフレンチレストラン","店舗名（英語）":"Amuse French Restaurant ","住所":"岩出市中黒432‐7","住所（英語）":"432-7 Nakakuro, Iwade-shi","検索条件エリア":"和歌山市エリア","カテゴリ（まとめ）":"グルメ","SSID種類":"L","lat":34.271229,"lng":135.286606},
{"id":233,"店舗名":"ファーマーズマーケット　めっけもん広場","店舗名（英語）":"Farmer's market Mekkemon-hiroba","住所":"紀の川市豊田56-3","住所（英語）":"56-3 Toyoda, Kinokawa-shi","検索条件エリア":"和歌山市エリア","カテゴリ（まとめ）":"グルメ,ショッピング","SSID種類":"N","lat":34.281612,"lng":135.353256},
{"id":234,"店舗名":"粉河寺","店舗名（英語）":"Kokawadera Temple","住所":"紀の川市粉河2787","住所（英語）":"2787 Kokawa, Kinokawa-shi","検索条件エリア":"和歌山市エリア","カテゴリ（まとめ）":"観光スポット,その他","SSID種類":"N","lat":34.276337,"lng":135.406616},
{"id":235,"店舗名":"焼肉の牛太本陣岩出店","店舗名（英語）":"Yakiniku restaurant　Gyuta Honjin Iwade","住所":"岩出市西国分725-1","住所（英語）":"725-1 Nishikokubu, Iwade-shi","検索条件エリア":"和歌山市エリア","カテゴリ（まとめ）":"グルメ","SSID種類":"N","lat":34.262955,"lng":135.334824},
{"id":236,"店舗名":"タウンコーヒー","店舗名（英語）":"Town Coffee","住所":"岩出市荊本235","住所（英語）":"235 Ibaramoto, Iwade-shi","検索条件エリア":"和歌山市エリア","カテゴリ（まとめ）":"ショッピング","SSID種類":"N","lat":34.263084,"lng":135.307602},
{"id":237,"店舗名":"粉河産土神社","店舗名（英語）":"Kokawaubusuna Jinja Shrine ","住所":"紀の川市粉河2788","住所（英語）":"2788 Kokawa, Kinokawa-shi","検索条件エリア":"和歌山市エリア","カテゴリ（まとめ）":"観光スポット,その他","SSID種類":"N","lat":34.276337,"lng":135.406616},
{"id":238,"店舗名":"稲穂会病院","店舗名（英語）":"Inahokai Hospital","住所":"紀の川市粉河756‐3","住所（英語）":"756-3 Kokawa, Kinokawa-shi","検索条件エリア":"和歌山市エリア","カテゴリ（まとめ）":"その他","SSID種類":"N","lat":34.267307,"lng":135.405624},
{"id":239,"店舗名":"鶏心（チキンハ－ト）ていは","店舗名（英語）":"Restaurant Chiken Heart Teiha","住所":"岩出市西野25-3","住所（英語）":"25-3 Nishino, Iwade-shi","検索条件エリア":"和歌山市エリア","カテゴリ（まとめ）":"グルメ","SSID種類":"N","lat":34.258865,"lng":135.306915},
{"id":240,"店舗名":"観音寺","店舗名（英語）":"Kannonji temple","住所":"紀の川市別所58","住所（英語）":"58 Bessho, Kinokawa-shi","検索条件エリア":"和歌山市エリア","カテゴリ（まとめ）":"観光スポット,その他","SSID種類":"N","lat":34.27002,"lng":135.390564},
{"id":241,"店舗名":"紀北印刷","店舗名（英語）":"Kihoku Printing","住所":"紀の川市西大井133-6","住所（英語）":"133-6 Nishioi, Kinokawa-shi","検索条件エリア":"和歌山市エリア","カテゴリ（まとめ）":"その他","SSID種類":"N","lat":34.267521,"lng":135.361816},
{"id":242,"店舗名":"Ｔ－ＮＡＲＵＳＥ（ケーキパーラーナルセ）","店舗名（英語）":"T-NARUSE Cake Parlor","住所":"岩出市清水363","住所（英語）":"363 Shimizu, Iwade-shi","検索条件エリア":"和歌山市エリア","カテゴリ（まとめ）":"グルメ,ショッピング","SSID種類":"L","lat":34.254509,"lng":135.316833},
{"id":243,"店舗名":"裁ち寄り処","店舗名（英語）":"Hashimoto city regional industry promotion center Tachiyori-dokoro","住所":"橋本市高野口町名倉288番地地場産業振興ｾﾝﾀｰ","住所（英語）":"Jiba Sangyo Shinko Center, 288 Nagura, Koyaguchicho, Hashimoto-shi","検索条件エリア":"高野山エリア","カテゴリ（まとめ）":"ショッピング,その他","SSID種類":"L","lat":34.304718,"lng":135.554977},
{"id":244,"店舗名":"はしもと広域観光案内所","店舗名（英語）":"Tourist information center of Hashimoto","住所":"橋本市古佐田1-5-9橋本市観光協会","住所（英語）":"Hashimoto City Tourist Association, 1-5-9 Kosada, Hashimoto-shi","検索条件エリア":"高野山エリア","カテゴリ（まとめ）":"公共交通,観光スポット,その他","SSID種類":"L","lat":34.317413,"lng":135.614075},
{"id":245,"店舗名":"みそや呉服店　店舗","店舗名（英語）":"Misoya draper's head office","住所":"橋本市賢堂1114-1","住所（英語）":"1114-1 Kashikodo, Hashimoto-shi","検索条件エリア":"高野山エリア","カテゴリ（まとめ）":"ショッピング","SSID種類":"L","lat":34.311321,"lng":135.61293},
{"id":246,"店舗名":"みそや呉服店　本店","店舗名（英語）":"Misoya draper's flagship store","住所":"橋本市橋本1-2-14","住所（英語）":"1-2-14 Hashimoto, Hashimoto-shi","検索条件エリア":"高野山エリア","カテゴリ（まとめ）":"ショッピング","SSID種類":"L","lat":34.315651,"lng":135.611923},
{"id":247,"店舗名":"ｂｅａｒｅ　ｂｙ　ＭｉＳＯＹＡ","店舗名（英語）":"Kimono Shop Beare by Misoya","住所":"橋本市橋本1-2-14","住所（英語）":"1-2-14 Hashimoto, Hashimoto-shi","検索条件エリア":"高野山エリア","カテゴリ（まとめ）":"ショッピング","SSID種類":"L","lat":34.315651,"lng":135.611923},
{"id":248,"店舗名":"かつらぎ温泉　八風の湯","店舗名（英語）":"Katsuragi onsen Happuno-yu","住所":"伊都郡かつらぎ町佐野702","住所（英語）":"702 Saya, Katsuragicho, Ito-gun","検索条件エリア":"高野山エリア","カテゴリ（まとめ）":"宿泊,グルメ,その他","SSID種類":"L","lat":34.293186,"lng":135.48436},
{"id":249,"店舗名":"天の里","店舗名（英語）":"Mountain Villa Amanosato","住所":"伊都郡かつらぎ町天野1620","住所（英語）":"1620 Amano, Katsuragicho, Ido-gun","検索条件エリア":"高野山エリア","カテゴリ（まとめ）":"宿泊,グルメ","SSID種類":"N","lat":34.29631,"lng":135.50351},
{"id":250,"店舗名":"宝善院","店舗名（英語）":"Hozenin temple (shukubo)","住所":"伊都郡高野町高野山568","住所（英語）":"568 Koyasan, Koyacho, Ido-gun","検索条件エリア":"高野山エリア","カテゴリ（まとめ）":"宿泊,グルメ","SSID種類":"L","lat":34.215015,"lng":135.587585},
{"id":251,"店舗名":"西南院","店舗名（英語）":"Sainanin temple (shukubo)","住所":"伊都郡高野町高野山249","住所（英語）":"249 Koyasan, Koyacho, Ido-gun","検索条件エリア":"高野山エリア","カテゴリ（まとめ）":"宿泊,グルメ","SSID種類":"L","lat":34.206329,"lng":135.574341},
{"id":252,"店舗名":"おみやげ・お茶処　西利","店舗名（英語）":"Nishiri restaurant and store","住所":"伊都郡高野町高野山784","住所（英語）":"784 Koyasan, Koyacho, Ito-gun","検索条件エリア":"高野山エリア","カテゴリ（まとめ）":"グルメ,ショッピング","SSID種類":"N","lat":34.21299,"lng":135.58522},
{"id":253,"店舗名":"天然温泉　ゆの里","店舗名（英語）":"Yunosato natural Onsen","住所":"橋本市神野々898","住所（英語）":"898 Konono, Hashimoto-shi","検索条件エリア":"高野山エリア","カテゴリ（まとめ）":"グルメ,その他","SSID種類":"N","lat":34.306259,"lng":135.578506},
{"id":254,"店舗名":"金剛三昧院","店舗名（英語）":"Kongo Zanmaiin temple(shukubo)","住所":"伊都郡高野町高野山425","住所（英語）":"425 Koyasan, Koyacho, Ido-gun","検索条件エリア":"高野山エリア","カテゴリ（まとめ）":"宿泊,グルメ","SSID種類":"N","lat":34.209164,"lng":135.586823},
{"id":255,"店舗名":"コスメはうす　ぶどう園","店舗名（英語）":"Cosme House Budouen Cosmetics","住所":"伊都郡かつらぎ町中飯降1661","住所（英語）":"1661 Nakaiburi, Katsuragicho, Ito-gun","検索条件エリア":"高野山エリア","カテゴリ（まとめ）":"ショッピング,その他","SSID種類":"N","lat":34.30349,"lng":135.536377},
{"id":256,"店舗名":"河内屋石油","店舗名（英語）":"Kawachiya Sekiyu Gas station","住所":"伊都郡高野町高野山388","住所（英語）":"388 Koyasan, Koya-cho, Ito-gun","検索条件エリア":"高野山エリア","カテゴリ（まとめ）":"その他","SSID種類":"N","lat":34.21299,"lng":135.58522},
{"id":257,"店舗名":"そば処　幸村庵","店舗名（英語）":"Soba Restaurant Yukimuraan","住所":"伊都郡九度山町九度山1404","住所（英語）":"1404 Kudoyama, Kudoyamacho, Ido-gun","検索条件エリア":"高野山エリア","カテゴリ（まとめ）":"グルメ","SSID種類":"N","lat":34.290726,"lng":135.559509},
{"id":258,"店舗名":"柿の葉すし九和楽","店舗名（英語）":"Kakinohasushi Kuwakura Restaurant","住所":"伊都郡九度山町九度山1353","住所（英語）":"1353 Kudoyama, Kudoyamacho, Ito-gun","検索条件エリア":"高野山エリア","カテゴリ（まとめ）":"グルメ,ショッピング","SSID種類":"N","lat":34.290051,"lng":135.561111},
{"id":259,"店舗名":"プティ・アシェット","店舗名（英語）":"Petit Assiette Confectionery Store","住所":"橋本市隅田町垂井511-4","住所（英語）":"511-4 Tarui, Sudacho, Hashimoto-shi","検索条件エリア":"高野山エリア","カテゴリ（まとめ）":"グルメ,ショッピング","SSID種類":"N","lat":34.335316,"lng":135.646881},
{"id":260,"店舗名":"松本商店","店舗名（英語）":"Matsumoto Shoten Store","住所":"伊都郡九度山町九度山1569","住所（英語）":"1569 Kudoyama, Kudoyamacho, Ido-gun","検索条件エリア":"高野山エリア","カテゴリ（まとめ）":"ショッピング","SSID種類":"N","lat":34.295807,"lng":135.564651},
{"id":261,"店舗名":"日本エコショップ　Fox橋本店","店舗名（英語）":"Nihon Eco Shop store Fox, Hashimoto","住所":"橋本市隅田町芋生7-5","住所（英語）":"7-5 Imo, Sumidacho, Hashimoto-shi","検索条件エリア":"高野山エリア","カテゴリ（まとめ）":"ショッピング","SSID種類":"N","lat":34.326275,"lng":135.649643},
{"id":262,"店舗名":"旅館　高野館","店舗名（英語）":"Japanese Style Inn Ryokan Koyakan","住所":"伊都郡高野町高野山445","住所（英語）":"445 Koyasan, Koyacho, Ido-gun","検索条件エリア":"高野山エリア","カテゴリ（まとめ）":"宿泊","SSID種類":"L","lat":34.209164,"lng":135.586823},
{"id":263,"店舗名":"丹生管省符神社","店舗名（英語）":"Niukanshobu-jinja shrine","住所":"伊都郡九度山町慈尊院835","住所（英語）":"835 Jisonin, Kudoyamacho, Ito-gun","検索条件エリア":"高野山エリア","カテゴリ（まとめ）":"観光スポット,その他","SSID種類":"N","lat":34.29425,"lng":135.549591},
{"id":264,"店舗名":"丹生都比売神社","店舗名（英語）":"Nyutsuhime-Jinja Shrine ","住所":"伊都郡かつらぎ町上天野230","住所（英語）":"230 Kamiamano, Katsuragicho, Ito-gun","検索条件エリア":"高野山エリア","カテゴリ（まとめ）":"観光スポット,その他","SSID種類":"N","lat":34.26009,"lng":135.51918},
{"id":265,"店舗名":"やっちょん広場","店舗名（英語）":"Yacchon Hiroba Farmer's Market","住所":"橋本市岸上522-1","住所（英語）":"522-1 Kishigami, Hashimoto-shi","検索条件エリア":"高野山エリア","カテゴリ（まとめ）":"グルメ,ショッピング","SSID種類":"N","lat":34.311207,"lng":135.587631},
{"id":266,"店舗名":"真田いこい茶屋","店舗名（英語）":"Tea House Sanada Ikoi Chaya","住所":"伊都郡九度山町九度山1722-1","住所（英語）":"1722-1 Kudoyama, Kudoyamacho, Ito-gun","検索条件エリア":"高野山エリア","カテゴリ（まとめ）":"グルメ","SSID種類":"N","lat":34.287937,"lng":135.562866},
{"id":267,"店舗名":"宝城院","店舗名（英語）":"Hojoin temple (shukubo)","住所":"伊都郡高野町高野山156","住所（英語）":"156 Koyasan, Koyacho, Ito-gun","検索条件エリア":"高野山エリア","カテゴリ（まとめ）":"宿泊,グルメ","SSID種類":"N","lat":34.220783,"lng":135.576935},
{"id":268,"店舗名":"遍照尊院","店舗名（英語）":"Temple Lodging Henjoson-in","住所":"伊都郡高野町高野山303","住所（英語）":"303 Koyasan, Koyacho, Ito-gun","検索条件エリア":"高野山エリア","カテゴリ（まとめ）":"宿泊,グルメ","SSID種類":"N","lat":34.206329,"lng":135.574341},
{"id":269,"店舗名":"総持院","店舗名（英語）":"Sojiin temple (shukubo)","住所":"伊都郡高野町高野山143","住所（英語）":"143 Koyasan, Koyacho, Ito-gun","検索条件エリア":"高野山エリア","カテゴリ（まとめ）":"宿泊,グルメ","SSID種類":"N","lat":34.220783,"lng":135.576935},
{"id":270,"店舗名":"パン工房　Ａｒｃｔｉｃ","店舗名（英語）":"Bakery Pan Kobo Arctic","住所":"橋本市東家6-1-3","住所（英語）":"6-1-3 Toge, Hashimoto-shi","検索条件エリア":"高野山エリア","カテゴリ（まとめ）":"グルメ,ショッピング","SSID種類":"L","lat":34.313797,"lng":135.605438},
{"id":271,"店舗名":"小堀南岳堂","店舗名（英語）":"Kobori Nangakudo Book Store","住所":"伊都郡高野町高野山781","住所（英語）":"781 Koyasan, Koyacho, Ito-gun","検索条件エリア":"高野山エリア","カテゴリ（まとめ）":"ショッピング","SSID種類":"L","lat":34.21299,"lng":135.58522},
{"id":272,"店舗名":"岩橋化粧品店","店舗名（英語）":"Iwahashi Cosmetic Store","住所":"橋本市東家4-6-11","住所（英語）":"4-6-11 Toge, Hashimoto-shi","検索条件エリア":"高野山エリア","カテゴリ（まとめ）":"ショッピング","SSID種類":"N","lat":34.316189,"lng":135.609467},
{"id":273,"店舗名":"報恩院","店舗名（英語）":"Houonin temple (shukubo)","住所":"伊都郡高野町高野山283","住所（英語）":"283 Koyasan,Koyacho, Ito-gun","検索条件エリア":"高野山エリア","カテゴリ（まとめ）":"宿泊,グルメ","SSID種類":"N","lat":34.206329,"lng":135.574341},
{"id":274,"店舗名":"道の駅「柿の郷くどやま」","店舗名（英語）":"Roadside Station Kakinosato Kudoyama","住所":"伊都郡九度山町入郷5番5","住所（英語）":"5-5 Nyugo, Kudoyamacho, Ito-gun","検索条件エリア":"高野山エリア","カテゴリ（まとめ）":"グルメ,ショッピング,観光スポット,その他","SSID種類":"L","lat":34.291832,"lng":135.552368},
{"id":275,"店舗名":"御菓子司さゞ波横休憩所","店舗名（英語）":"Rest Area next to Sazanami Confectionery Store","住所":"伊都郡高野町大字高野山797","住所（英語）":"797 Koyasan, Koyacho, Ito-gun","検索条件エリア":"高野山エリア","カテゴリ（まとめ）":"ショッピング,その他","SSID種類":"N","lat":34.206329,"lng":135.574341},
{"id":276,"店舗名":"かつらぎ西パーキングエリア","店舗名（英語）":"Antenna Shop on the Down Line at Katsuragi Nishi Parking Area","住所":"伊都郡かつらぎ町笠田東1270-22","住所（英語）":"1270-22 Kasedahigashi, Katsuragicho, Ito-gun","検索条件エリア":"高野山エリア","カテゴリ（まとめ）":"グルメ,ショッピング,観光スポット,その他","SSID種類":"L","lat":34.288429,"lng":135.479355},
{"id":277,"店舗名":"ＴＥＲＡＫＯ－ＹＡ","店舗名（英語）":"Tourist Information Center TERAKO-YA","住所":"伊都郡高野町高野山445","住所（英語）":"445 Koyasan, Koyacho, Ito-gun","検索条件エリア":"高野山エリア","カテゴリ（まとめ）":"その他","SSID種類":"L","lat":34.209164,"lng":135.586823},
{"id":278,"店舗名":"ウエストコースト","店舗名（英語）":"Restaurant West Coast","住所":"伊都郡かつらぎ町大字笠田東108-1","住所（英語）":"108-1 Kasedahigashi, Katsuragicho, Ito-gun","検索条件エリア":"高野山エリア","カテゴリ（まとめ）":"グルメ","SSID種類":"L","lat":34.289715,"lng":135.481293},
{"id":279,"店舗名":"わらべ","店舗名（英語）":"Warabe, seafood restaurant","住所":"和歌山県橋本市小原田74-9ﾊｲﾂ小原田1階","住所（英語）":"Heights Oharata Bldg. 1F, 74-9 Oharata, Hashimoto-shi","検索条件エリア":"高野山エリア","カテゴリ（まとめ）":"グルメ","SSID種類":"L","lat":34.328766,"lng":135.607162},
{"id":280,"店舗名":"子安地蔵寺","店舗名（英語）":"Koyasujizo-ji Temple","住所":"橋本市菖蒲谷94","住所（英語）":"94 Syobutani, Hashimoto-shi","検索条件エリア":"高野山エリア","カテゴリ（まとめ）":"観光スポット,その他","SSID種類":"N","lat":34.337437,"lng":135.58313},
{"id":281,"店舗名":"真明寺","店舗名（英語）":"Shinmyo-ji Temple","住所":"伊都郡かつらぎ町佐野318","住所（英語）":"318 Saya, Katsuragicho, Ito-gun","検索条件エリア":"高野山エリア","カテゴリ（まとめ）":"観光スポット,その他","SSID種類":"L","lat":34.292419,"lng":135.482452},
{"id":282,"店舗名":"増福院","店舗名（英語）":"Temple Lodging Zofuku-in","住所":"伊都郡高野町高野山346","住所（英語）":"346 Koyasan, Koyacho, Ito-gun","検索条件エリア":"高野山エリア","カテゴリ（まとめ）":"宿泊,グルメ","SSID種類":"L","lat":34.215015,"lng":135.587585},
{"id":283,"店舗名":"西禅院","店舗名（英語）":"Temple Lodging Saizen-in","住所":"伊都郡高野町高野山154","住所（英語）":"154 Koyasan, Koyacho, Ito-gun","検索条件エリア":"高野山エリア","カテゴリ（まとめ）":"宿泊,グルメ","SSID種類":"L","lat":34.220783,"lng":135.576935},
{"id":284,"店舗名":"カメイプラザ","店舗名（英語）":"Kamei Plaza Gift Shop","住所":"橋本市市脇4丁目1-20","住所（英語）":"4-1-20 Ichiwaki, Hashimoto-shi","検索条件エリア":"高野山エリア","カテゴリ（まとめ）":"ショッピング","SSID種類":"L","lat":34.31348,"lng":135.601273},
{"id":285,"店舗名":"亀井商店卸配送センター","店舗名（英語）":"Kamei Shoten Wholesale Delivery Center","住所":"橋本市市脇4丁目1-4","住所（英語）":"4-1-4 Ichiwaki, Hashimoto-shi","検索条件エリア":"高野山エリア","カテゴリ（まとめ）":"ショッピング,その他","SSID種類":"L","lat":34.31348,"lng":135.601273},
{"id":286,"店舗名":"コスメティックかめい","店舗名（英語）":"Cosmetic shop Kamei","住所":"橋本市橋本2丁目2-14","住所（英語）":"2-2-14 Hashimoto, Hashimoto-shi","検索条件エリア":"高野山エリア","カテゴリ（まとめ）":"ショッピング","SSID種類":"N","lat":34.316174,"lng":135.613541},
{"id":287,"店舗名":"木間暮","店舗名（英語）":"Kimagure Cafe and Restaurant","住所":"橋本市西畑489-1","住所（英語）":"489-1 Nishibata, Hashimoto-shi","検索条件エリア":"高野山エリア","カテゴリ（まとめ）":"グルメ","SSID種類":"N","lat":34.296989,"lng":135.602951},
{"id":288,"店舗名":"南海りんかんバス　高野山営業所","店舗名（英語）":"Nankai Rinkan Bus, Koyasan Business Office","住所":"伊都郡高野町高野山国有林第8林班105-1","住所（英語）":"105-1 8th Group of National Forest, Koyasan, Koyacho, Ito-gun","検索条件エリア":"高野山エリア","カテゴリ（まとめ）":"公共交通","SSID種類":"N","lat":34.215015,"lng":135.587585},
{"id":289,"店舗名":"大円院","店舗名（英語）":"Daien-in Temple","住所":"伊都郡高野町高野山594","住所（英語）":"594 Koyasan, Koyacho, Ito-gun","検索条件エリア":"高野山エリア","カテゴリ（まとめ）":"宿泊,グルメ","SSID種類":"N","lat":34.219963,"lng":135.598831},
{"id":290,"店舗名":"二軒目飯店","店舗名（英語）":"Chinese Restaurant Nikenme Hanten","住所":"伊都郡かつらぎ町佐野890","住所（英語）":"890 Saya, Katsuragicho, Ito-gun","検索条件エリア":"高野山エリア","カテゴリ（まとめ）":"グルメ","SSID種類":"N","lat":34.291065,"lng":135.487228},
{"id":291,"店舗名":"初櫻酒造","店舗名（英語）":"Hatsuzakura Shuzo Sake Factory","住所":"和歌山県伊都郡かつらぎ町中飯降85","住所（英語）":"85 Nakaiburi, Katsuragicho, Ito-gun","検索条件エリア":"高野山エリア","カテゴリ（まとめ）":"ショッピング,その他","SSID種類":"N","lat":34.303585,"lng":135.532822},
{"id":292,"店舗名":"大明王院","店舗名（英語）":"Daimyoo-in Temple","住所":"伊都郡高野町大字高野山482","住所（英語）":"482 Koyasan, Koyacho, Ito-gun","検索条件エリア":"高野山エリア","カテゴリ（まとめ）":"宿泊,グルメ","SSID種類":"N","lat":34.201385,"lng":135.600281},
{"id":293,"店舗名":"一喜食堂","店舗名（英語）":"Ikki Dining","住所":"有田郡湯浅町吉川64-3","住所（英語）":"64-3 Yoshikawa, Yuasacho, Arida-gun","検索条件エリア":"有田・湯浅・日高エリア","カテゴリ（まとめ）":"グルメ","SSID種類":"L","lat":34.047024,"lng":135.187103},
{"id":294,"店舗名":"すはらシーサイドハウス","店舗名（英語）":"Suhara Seaside House Boat Rental","住所":"有田郡湯浅町栖原966-1","住所（英語）":"966-1 Suhara, Yuasacho, Arida-gun","検索条件エリア":"有田・湯浅・日高エリア","カテゴリ（まとめ）":"観光スポット,その他","SSID種類":"L","lat":34.041801,"lng":135.164658},
{"id":295,"店舗名":"貴望","店舗名（英語）":"Kibo Guest House","住所":"有田郡湯浅町大字田57-9","住所（英語）":"57-9 Yuasacho, Arida-gun","検索条件エリア":"有田・湯浅・日高エリア","カテゴリ（まとめ）":"宿泊","SSID種類":"N","lat":34.054569,"lng":135.148376},
{"id":296,"店舗名":"紀州路ありだ","店舗名（英語）":"Kishuji Arida General Store","住所":"有田郡有田川町熊井674-3","住所（英語）":"674-3 Kumai, Aridagawacho, Arida-gun","検索条件エリア":"有田・湯浅・日高エリア","カテゴリ（まとめ）":"グルメ,ショッピング","SSID種類":"N","lat":34.042278,"lng":135.195724},
{"id":297,"店舗名":"焼肉　森谷","店舗名（英語）":"Yakiniku Restaurant Moritani","住所":"有田郡有田川町庄322-1","住所（英語）":"322-1 Sho, Aridagawacho, Aridaga-gun","検索条件エリア":"有田・湯浅・日高エリア","カテゴリ（まとめ）":"グルメ","SSID種類":"L","lat":34.065495,"lng":135.234589},
{"id":298,"店舗名":"あさぎり","店舗名（英語）":"Lodging and Experience Facility Asagiri","住所":"有田郡有田川町大字清水1225-1","住所（英語）":"1225-1 Shimizu, Aridagawacho, Arida-gun","検索条件エリア":"有田・湯浅・日高エリア","カテゴリ（まとめ）":"宿泊,グルメ,その他","SSID種類":"N","lat":34.085457,"lng":135.430542},
{"id":299,"店舗名":"麺処むらなか","店舗名（英語）":"Mendokoro Muranaka noodle restaurant","住所":"有田郡広川町大字唐尾213‐5","住所（英語）":"213-5 Ooazakaro, Hirogawacho, Arida-gun","検索条件エリア":"有田・湯浅・日高エリア","カテゴリ（まとめ）":"グルメ","SSID種類":"N","lat":34.00354,"lng":135.145996},
{"id":300,"店舗名":"角長","店舗名（英語）":"Kadocho soy sauce shop","住所":"有田郡湯浅町湯浅7","住所（英語）":"7 Yuasa, Yuasacho, Aida-gun","検索条件エリア":"有田・湯浅・日高エリア","カテゴリ（まとめ）":"ショッピング,観光スポット,その他","SSID種類":"N","lat":34.037365,"lng":135.174088},
{"id":301,"店舗名":"カフェアンドレストバグダッド","店舗名（英語）":"Cafe and Rest Bagdad","住所":"有田郡有田川町大字修理川417","住所（英語）":"417 Surigawa, Aridagawacho, Arida-gun","検索条件エリア":"有田・湯浅・日高エリア","カテゴリ（まとめ）":"グルメ","SSID種類":"N","lat":34.032833,"lng":135.287109},
{"id":302,"店舗名":"北町茶屋いっぷく","店舗名（英語）":"Kitamachichaya Ippuku restaurant","住所":"有田郡湯浅町湯浅23","住所（英語）":"23 Yuasacho, Arida-gun","検索条件エリア":"有田・湯浅・日高エリア","カテゴリ（まとめ）":"グルメ","SSID種類":"L","lat":34.035324,"lng":135.176682},
{"id":303,"店舗名":"国民宿舎　くろ潮","店舗名（英語）":"Kuroshio Hotel","住所":"有田市宮崎町1562-2","住所（英語）":"1562-2 Miyazakicho, Arida-shi","検索条件エリア":"有田・湯浅・日高エリア","カテゴリ（まとめ）":"宿泊","SSID種類":"L","lat":34.077488,"lng":135.103058},
{"id":304,"店舗名":"レスト喫茶　ドンキー","店舗名（英語）":"Coffee Restaurant Donkey","住所":"有田郡湯浅町湯浅1045-1","住所（英語）":"1045-1 Yuasa, Yuasacho, Arida-gun","検索条件エリア":"有田・湯浅・日高エリア","カテゴリ（まとめ）":"グルメ","SSID種類":"L","lat":34.033665,"lng":135.180099},
{"id":305,"店舗名":"マルキ食堂","店舗名（英語）":"Maruki Shokudo restaurant","住所":"有田市箕島897-1","住所（英語）":"897-1 Minoshima, Arida-shi","検索条件エリア":"有田・湯浅・日高エリア","カテゴリ（まとめ）":"グルメ","SSID種類":"L","lat":34.086044,"lng":135.124298},
{"id":306,"店舗名":"喜多亭","店舗名（英語）":"Kitatei, French restaurant","住所":"有田市初島町里1933-8","住所（英語）":"1933-8 Sato, Hatsushimacho, Arida-shi","検索条件エリア":"有田・湯浅・日高エリア","カテゴリ（まとめ）":"グルメ","SSID種類":"N","lat":34.096527,"lng":135.115463},
{"id":307,"店舗名":"美よし荘旅館","店舗名（英語）":"Miyoshiso Ryokan","住所":"有田郡湯浅町別所166-1","住所（英語）":"166-1 Bessho, Yuasacho, Arida-gun","検索条件エリア":"有田・湯浅・日高エリア","カテゴリ（まとめ）":"宿泊","SSID種類":"N","lat":34.029942,"lng":135.182388},
{"id":308,"店舗名":"民宿　波満の家","店舗名（英語）":"Hamanoie guesthouse","住所":"日高郡日高町方杭41","住所（英語）":"41 Katakui, Hidakacho, Hidaka-gun","検索条件エリア":"有田・湯浅・日高エリア","カテゴリ（まとめ）":"宿泊","SSID種類":"N","lat":33.939091,"lng":135.087326},
{"id":309,"店舗名":"ロッジ・クール","店舗名（英語）":"Lodge Kool Inn","住所":"日高郡日高川町高津尾908","住所（英語）":"908 Takatsuo, Hidakagawacho, Hidaka-gun","検索条件エリア":"有田・湯浅・日高エリア","カテゴリ（まとめ）":"宿泊","SSID種類":"L","lat":33.964417,"lng":135.288818},
{"id":310,"店舗名":"丸仁商店","店舗名（英語）":"Maruni Shoten store","住所":"御坊市湯川町小松原410-1","住所（英語）":"410-1 Komatsubara, Yukawacho, Gobo-shi","検索条件エリア":"有田・湯浅・日高エリア","カテゴリ（まとめ）":"ショッピング,その他","SSID種類":"L","lat":33.907513,"lng":135.157913},
{"id":311,"店舗名":"イタリア料理ＢＡＭＢＵ（バンブー）","店舗名（英語）":"Italian Cuisine Bambu","住所":"御坊市湯川町 財部664-8","住所（英語）":"664-8 Takara, Yukawacho, Gobo-shi","検索条件エリア":"有田・湯浅・日高エリア","カテゴリ（まとめ）":"グルメ","SSID種類":"L","lat":33.898533,"lng":135.153198},
{"id":312,"店舗名":"民宿　はまよし","店舗名（英語）":"Hamayoshi guesthouse","住所":"日高郡日高町志賀3960-1","住所（英語）":"3960-1 Shiga, Hidakacho, Hidaka-gun","検索条件エリア":"有田・湯浅・日高エリア","カテゴリ（まとめ）":"宿泊","SSID種類":"L","lat":33.924335,"lng":135.110855},
{"id":313,"店舗名":"ビジネスホテル　紀の国","店舗名（英語）":"Business Hotel Kinokuni","住所":"御坊市湯川町小松原463-1","住所（英語）":"463-1 Komatsubara, Yukawacho, Gobo-shi","検索条件エリア":"有田・湯浅・日高エリア","カテゴリ（まとめ）":"宿泊","SSID種類":"L","lat":33.90564,"lng":135.155975},
{"id":314,"店舗名":"民宿　シーサイド産湯","店舗名（英語）":"Seaside Ubuyu guesthouse","住所":"日高郡日高町産湯122","住所（英語）":"122 Ubuyu, Hidakacho, Hidaka-gun","検索条件エリア":"有田・湯浅・日高エリア","カテゴリ（まとめ）":"宿泊,グルメ","SSID種類":"N","lat":33.912647,"lng":135.084717},
{"id":315,"店舗名":"白崎シーサイドハイツ白崎荘","店舗名（英語）":"Shirasaki Seaside Heights Shirasaki Manor","住所":"日高郡由良町大引948-5","住所（英語）":"948-5 Obiki, Yuracho, Hidaka-gun","検索条件エリア":"有田・湯浅・日高エリア","カテゴリ（まとめ）":"宿泊","SSID種類":"N","lat":33.968487,"lng":135.087265},
{"id":316,"店舗名":"喫茶みはる","店舗名（英語）":"Kissa Miharu Cafe","住所":"日高郡美浜町大字田井566-1","住所（英語）":"566-1 Tai, Mihamacho, Hidaka-gun","検索条件エリア":"有田・湯浅・日高エリア","カテゴリ（まとめ）":"グルメ","SSID種類":"L","lat":33.887928,"lng":135.151215},
{"id":317,"店舗名":"観光農園ひだか","店舗名（英語）":"Tourist Farm Hidaka","住所":"御坊市名田町上野1336-2","住所（英語）":"1336-2 Ueno, Nadacho, Gobo-shi","検索条件エリア":"有田・湯浅・日高エリア","カテゴリ（まとめ）":"グルメ,観光スポット,その他","SSID種類":"N","lat":33.831547,"lng":135.181458},
{"id":318,"店舗名":"野天風呂宝の湯","店舗名（英語）":"Notenburo Spa Takaranoyu","住所":"御坊市湯川町財部1118-1","住所（英語）":"1118-1 Takara, Yukawacho, Gobo-shi","検索条件エリア":"有田・湯浅・日高エリア","カテゴリ（まとめ）":"グルメ,その他","SSID種類":"N","lat":33.90078,"lng":135.163452},
{"id":319,"店舗名":"民宿　リッチ","店舗名（英語）":"Minshuku Rich","住所":"日高郡みなべ町植田942-1","住所（英語）":"942-1 Haneta, Minabecho, Hidaka-gun","検索条件エリア":"有田・湯浅・日高エリア","カテゴリ（まとめ）":"宿泊","SSID種類":"L","lat":33.771832,"lng":135.321808},
{"id":320,"店舗名":"朝日楼","店舗名（英語）":"Asahiro, seafood restaurant","住所":"日高郡みなべ町梅香丘1589-2","住所（英語）":"1589-2 Umegaoka, Minabecho, Hidaka-gun","検索条件エリア":"有田・湯浅・日高エリア","カテゴリ（まとめ）":"宿泊","SSID種類":"L","lat":33.771832,"lng":135.321808},
{"id":321,"店舗名":"錦花堂","店舗名（英語）":"Kinkado Japanese confectionery store","住所":"日高郡由良町里1356","住所（英語）":"1356 Sato, Yuracho, Hidaka-gun","検索条件エリア":"有田・湯浅・日高エリア","カテゴリ（まとめ）":"グルメ,ショッピング","SSID種類":"N","lat":33.960075,"lng":135.118607},
{"id":322,"店舗名":"伊藤化粧品店","店舗名（英語）":"Ito Cosmetics store","住所":"日高郡みなべ町北道221","住所（英語）":"221 Kitado, Minabecho, Hidaka-gun","検索条件エリア":"有田・湯浅・日高エリア","カテゴリ（まとめ）":"ショッピング","SSID種類":"N","lat":33.769127,"lng":135.320679},
{"id":323,"店舗名":"紀州鉄道　紀伊御坊駅","店舗名（英語）":"Kishu Railway Kiigobo Station","住所":"御坊市薗275","住所（英語）":"275 Sono, Gobo-shi","検索条件エリア":"有田・湯浅・日高エリア","カテゴリ（まとめ）":"公共交通","SSID種類":"N","lat":33.893944,"lng":135.154099},
{"id":324,"店舗名":"往生寺","店舗名（英語）":"Oujyouji temple","住所":"御坊市湯川町財部412","住所（英語）":"412 Takara, Yukawacho, Gobo-shi","検索条件エリア":"有田・湯浅・日高エリア","カテゴリ（まとめ）":"観光スポット,その他","SSID種類":"N","lat":33.900505,"lng":135.151474},
{"id":325,"店舗名":"カフェドマンマ","店舗名（英語）":"Cafe De Mamma Restaurant","住所":"日高郡みなべ町埴田1590-40","住所（英語）":"1229 Oshine, Minabecho, Hidaka-gun","検索条件エリア":"有田・湯浅・日高エリア","カテゴリ（まとめ）":"グルメ","SSID種類":"N","lat":33.757042,"lng":135.325348},
{"id":326,"店舗名":"岩本食品","店舗名（英語）":"Iwamoto Shokuhin Plum Store","住所":"日高郡みなべ町晩稲1187","住所（英語）":"1187 Oshine, Minabecho, Hodaka-gun","検索条件エリア":"有田・湯浅・日高エリア","カテゴリ（まとめ）":"ショッピング","SSID種類":"N","lat":33.786678,"lng":135.337112},
{"id":327,"店舗名":"お宿　喜作","店舗名（英語）":"Kisaku Japanese Inn","住所":"日高郡日高川町平川894-1","住所（英語）":"894-1 Hyugawa, Hidakagawacho, Hidaka-gun","検索条件エリア":"有田・湯浅・日高エリア","カテゴリ（まとめ）":"宿泊","SSID種類":"L","lat":33.937645,"lng":135.236298},
{"id":328,"店舗名":"わかば薬局","店舗名（英語）":"Wakaba Pharmacy","住所":"御坊市湯川町財部722-5","住所（英語）":"722-5 Takara, Yukawacho, Gobou-shi","検索条件エリア":"有田・湯浅・日高エリア","カテゴリ（まとめ）":"その他","SSID種類":"N","lat":33.896774,"lng":135.153336},
{"id":329,"店舗名":"日高町旅館民宿組合","店舗名（英語）":"Tourist Information Center for Japanese inns and Guesthouses in Hidakacho ","住所":"日高郡日高町高家639-4","住所（英語）":"639-4 Taie, Hidakacho, Hidaka-gun","検索条件エリア":"有田・湯浅・日高エリア","カテゴリ（まとめ）":"その他","SSID種類":"N","lat":33.927994,"lng":135.137878},
{"id":330,"店舗名":"まちなか総合案内所　しらすな","店舗名（英語）":"Shirasuna tourist information center","住所":"西牟婁郡白浜町1384-57","住所（英語）":"1384-57 Shirahamacho, Nishimuro-gun","検索条件エリア":"白浜・串本エリア","カテゴリ（まとめ）":"観光スポット,その他","SSID種類":"L","lat":33.669189,"lng":135.402939},
{"id":331,"店舗名":"タイム","店舗名（英語）":"Time computer service","住所":"西牟婁郡白浜町844","住所（英語）":"844 Shirahamacho, Nishimuro-gun","検索条件エリア":"白浜・串本エリア","カテゴリ（まとめ）":"その他","SSID種類":"L","lat":33.669189,"lng":135.402939},
{"id":332,"店舗名":"サウンドスペース　フリッパー","店舗名（英語）":"Sound Space Flipper Karaoke house","住所":"西牟婁郡白浜町2315-3","住所（英語）":"2315-3 Shirahamacho, Nishimuro-gun","検索条件エリア":"白浜・串本エリア","カテゴリ（まとめ）":"その他","SSID種類":"L","lat":33.669189,"lng":135.402939},
{"id":333,"店舗名":"ページボーイ美容室","店舗名（英語）":"Beauty Salon Page Boy","住所":"西牟婁郡白浜町693","住所（英語）":"693 Shirahamacho, Nishimuro-gun","検索条件エリア":"白浜・串本エリア","カテゴリ（まとめ）":"その他","SSID種類":"L","lat":33.669189,"lng":135.402939},
{"id":334,"店舗名":"霧の郷　たかはら","店舗名（英語）":"Kirinosato Takahara Inn","住所":"田辺市中辺路町高原826","住所（英語）":"826 Takahara, Nakahechicho, Tanabe-shi","検索条件エリア":"熊野エリア","カテゴリ（まとめ）":"宿泊,グルメ,その他","SSID種類":"L","lat":33.786282,"lng":135.532532},
{"id":335,"店舗名":"やまと","店舗名（英語）":"Yamato café and shop","住所":"西牟婁郡白浜町1356-2","住所（英語）":"1356-2 Shirahamacho, Nishimuro-gun","検索条件エリア":"白浜・串本エリア","カテゴリ（まとめ）":"グルメ,ショッピング","SSID種類":"L","lat":33.669189,"lng":135.402939},
{"id":336,"店舗名":"とらや","店舗名（英語）":"Toraya Stationery Shop","住所":"西牟婁郡白浜町868-43","住所（英語）":"868-43 Shirahamacho, Nishimuro-gun","検索条件エリア":"白浜・串本エリア","カテゴリ（まとめ）":"ショッピング","SSID種類":"L","lat":33.669189,"lng":135.402939},
{"id":337,"店舗名":"魚政商店","店舗名（英語）":"Uomasa kamaboko shop","住所":"西牟婁郡白浜町1353-1","住所（英語）":"1353-1 Shirahamacho, Nishimuro-gun","検索条件エリア":"白浜・串本エリア","カテゴリ（まとめ）":"ショッピング","SSID種類":"L","lat":33.669189,"lng":135.402939},
{"id":338,"店舗名":"民宿アイス","店舗名（英語）":"Aisu guesthouse and restaurant","住所":"西牟婁郡白浜町896","住所（英語）":"896 Shirahamacho, Nishimuro-gun","検索条件エリア":"白浜・串本エリア","カテゴリ（まとめ）":"宿泊,グルメ","SSID種類":"L","lat":33.669189,"lng":135.402939},
{"id":339,"店舗名":"民宿　森のお宿","店舗名（英語）":"Mori-No-Oyado guesthouse","住所":"西牟婁郡白浜町大880-2","住所（英語）":"880-2 O, Shirahamacho, Nishimuro-gun","検索条件エリア":"白浜・串本エリア","カテゴリ（まとめ）":"宿泊","SSID種類":"L","lat":33.646751,"lng":135.507812},
{"id":340,"店舗名":"ビジネスホテル田辺サンシャイン","店舗名（英語）":"Business Hotel Tanabe Sunshine ","住所":"田辺市稲成町231-6","住所（英語）":"231-6 Inaricho, Tanabe-shi","検索条件エリア":"熊野エリア","カテゴリ（まとめ）":"宿泊","SSID種類":"N","lat":33.739334,"lng":135.374405},
{"id":341,"店舗名":"農家民泊もんぺとくわ","店舗名（英語）":"Monpe-To-Kuwa guesthouse","住所":"田辺市龍神村西261","住所（英語）":"261 Ryujinmuranishi, Tanabe-shi","検索条件エリア":"熊野エリア","カテゴリ（まとめ）":"宿泊,グルメ","SSID種類":"N","lat":33.893108,"lng":135.488632},
{"id":342,"店舗名":"素泊り専科プチ白浜","店舗名（英語）":"Petit Shirahama guest house","住所":"西牟婁郡白浜町1335-60","住所（英語）":"1335-60 Shirahamacho, Nishimuro-gun","検索条件エリア":"白浜・串本エリア","カテゴリ（まとめ）":"宿泊","SSID種類":"L","lat":33.669189,"lng":135.402939},
{"id":343,"店舗名":"正木自転車","店舗名（英語）":"Masaki Bicycle Shop","住所":"西牟婁郡白浜町1062-14","住所（英語）":"1062-14 Shirahamacho, Nishimuro-gun","検索条件エリア":"白浜・串本エリア","カテゴリ（まとめ）":"ショッピング","SSID種類":"L","lat":33.669189,"lng":135.402939},
{"id":344,"店舗名":"畠山電気商会","店舗名（英語）":"Hatakeyama Denki Shokai Electric shpo","住所":"西牟婁郡白浜町1162-56","住所（英語）":"1162-56 Shirahamacho, Nishimuro-gun","検索条件エリア":"白浜・串本エリア","カテゴリ（まとめ）":"ショッピング","SSID種類":"L","lat":33.669189,"lng":135.402939},
{"id":345,"店舗名":"龍神温泉上御殿","店舗名（英語）":"Ryujin Onsen Kamigoten hotel","住所":"田辺市龍神村龍神42","住所（英語）":"42 Ryujin, Ryujinmura, Tanabe-shi","検索条件エリア":"熊野エリア","カテゴリ（まとめ）":"宿泊","SSID種類":"L","lat":33.962479,"lng":135.561264},
{"id":346,"店舗名":"坂井屋","店舗名（英語）":"Sakaiya Hotel","住所":"田辺市龍神村龍神56","住所（英語）":"56 Ryujin, Ryujinmura, Tanabe-shi","検索条件エリア":"熊野エリア","カテゴリ（まとめ）":"宿泊","SSID種類":"L","lat":33.962479,"lng":135.561264},
{"id":347,"店舗名":"若山屋商店","店舗名（英語）":"Wakayamaya store","住所":"田辺市龍神村龍神44","住所（英語）":"44 Ryujinmuraryujin, Tanabe-shi","検索条件エリア":"熊野エリア","カテゴリ（まとめ）":"グルメ,ショッピング","SSID種類":"L","lat":33.962479,"lng":135.561264},
{"id":348,"店舗名":"有軒屋","店舗名（英語）":"Arinokiya Inn","住所":"田辺市龍神村龍神39","住所（英語）":"39 Ryujinmuraryujin, Tanabe-shi","検索条件エリア":"熊野エリア","カテゴリ（まとめ）":"宿泊","SSID種類":"L","lat":33.962479,"lng":135.561264},
{"id":349,"店舗名":"国民宿舎ホテルシラハマ","店舗名（英語）":"Hotel Shirahama","住所":"西牟婁郡白浜町813","住所（英語）":"813 Shirahamacho, Nishimuro-gun","検索条件エリア":"白浜・串本エリア","カテゴリ（まとめ）":"宿泊","SSID種類":"L","lat":33.669189,"lng":135.402939},
{"id":350,"店舗名":"プラスワン","店舗名（英語）":"Plus One Guest House","住所":"西牟婁郡白浜町2927-1813","住所（英語）":"2927-1813 Shirahamacho, Nishimuro-gun","検索条件エリア":"白浜・串本エリア","カテゴリ（まとめ）":"宿泊","SSID種類":"L","lat":33.669189,"lng":135.402939},
{"id":351,"店舗名":"福重","店舗名（英語）":"Fukuju Restaurant","住所":"西牟婁郡白浜町890-105","住所（英語）":"890-105 Shirahamacho, Nishimuro-gun","検索条件エリア":"白浜・串本エリア","カテゴリ（まとめ）":"グルメ","SSID種類":"L","lat":33.669189,"lng":135.402939},
{"id":352,"店舗名":"ホテル花飾璃","店舗名（英語）":"Hotel Hanakazari","住所":"西牟婁郡白浜町1243","住所（英語）":"1243 Shirahamacho, Nishimuro-gun","検索条件エリア":"白浜・串本エリア","カテゴリ（まとめ）":"宿泊","SSID種類":"L","lat":33.669189,"lng":135.402939},
{"id":353,"店舗名":"谷地商店","店舗名（英語）":"Taniji Shoten store (milk delivery, etc)","住所":"西牟婁郡白浜町1111-41","住所（英語）":"1111-41 Shirahamacho, Nishimuro-gun","検索条件エリア":"白浜・串本エリア","カテゴリ（まとめ）":"グルメ","SSID種類":"L","lat":33.669189,"lng":135.402939},
{"id":354,"店舗名":"白浜ガス","店舗名（英語）":"Shirahama Gas store","住所":"西牟婁郡白浜町1130-36","住所（英語）":"1130-36 Shirahamacho, Nishimuro-gun","検索条件エリア":"白浜・串本エリア","カテゴリ（まとめ）":"その他","SSID種類":"L","lat":33.669189,"lng":135.402939},
{"id":355,"店舗名":"岸商店","店舗名（英語）":"Gyoumu-super supermarket","住所":"西牟婁郡白浜町1111-21","住所（英語）":"1111-21 Shirahamacho, Nishimuro-gun","検索条件エリア":"白浜・串本エリア","カテゴリ（まとめ）":"ショッピング","SSID種類":"L","lat":33.669189,"lng":135.402939},
{"id":356,"店舗名":"小さな宿　白南風","店舗名（英語）":"Shirahae guesthouse","住所":"西牟婁郡白浜町2022","住所（英語）":"2022 Shirahamacho, Nishimuro-gun","検索条件エリア":"白浜・串本エリア","カテゴリ（まとめ）":"宿泊","SSID種類":"L","lat":33.669189,"lng":135.402939},
{"id":357,"店舗名":"岸酒店","店舗名（英語）":"Kishi Liquor Store","住所":"すさみ町周参見2094-6","住所（英語）":"2094-6 Susami, Susamicho","検索条件エリア":"白浜・串本エリア","カテゴリ（まとめ）":"ショッピング","SSID種類":"L","lat":33.54924,"lng":135.493713},
{"id":358,"店舗名":"白浜シャンピア","店舗名（英語）":"Shirahama Shampia resort condominium","住所":"西牟婁郡白浜町3216-14","住所（英語）":"3216-14 Shirahamacho, Nishimuro-gun","検索条件エリア":"白浜・串本エリア","カテゴリ（まとめ）":"宿泊","SSID種類":"L","lat":33.669189,"lng":135.402939},
{"id":359,"店舗名":"田辺駅前広場","店舗名（英語）":"Tanabe Train Station Square","住所":"田辺市湊963","住所（英語）":"963 Minato, Tanabe-shi","検索条件エリア":"熊野エリア","カテゴリ（まとめ）":"ショッピング,公共交通,観光スポット,その他","SSID種類":"N","lat":33.733002,"lng":135.38472},
{"id":360,"店舗名":"マリンクラブスサミ","店舗名（英語）":"Marine Club Susami fishing service","住所":"西牟婁郡すさみ町周参見3363-3","住所（英語）":"3363-3 Susami, Susamicho, Nishimuro-gun","検索条件エリア":"白浜・串本エリア","カテゴリ（まとめ）":"観光スポット,その他","SSID種類":"L","lat":33.554932,"lng":135.503235},
{"id":361,"店舗名":"杜の郷みるりいな","店舗名（英語）":"Morinosato Miruriina Cafe and Restaurant","住所":"田辺市本宮町大津荷5-3","住所（英語）":"5-3 Honguchootsuga, Tanabe-shi","検索条件エリア":"熊野エリア","カテゴリ（まとめ）":"グルメ","SSID種類":"L","lat":33.823109,"lng":135.807266},
{"id":362,"店舗名":"ロイヤルリゾート白浜","店舗名（英語）":"Royal Resort Shirahama Apartment House","住所":"西牟婁郡白浜町3219-6","住所（英語）":"3219-6 Shirahamacho, Nishimuro-gun","検索条件エリア":"白浜・串本エリア","カテゴリ（まとめ）":"宿泊","SSID種類":"L","lat":33.669189,"lng":135.402939},
{"id":363,"店舗名":"福すし","店舗名（英語）":"Fuku Sushi Restaurant","住所":"西牟婁郡上富田町朝来932","住所（英語）":"932 Asso, Kamitondacho, Nishimuro-gun","検索条件エリア":"白浜・串本エリア","カテゴリ（まとめ）":"グルメ","SSID種類":"L","lat":33.694542,"lng":135.423706},
{"id":364,"店舗名":"エビとカニの水族館","店舗名（英語）":"Susami Crustacean Aquarium","住所":"西牟婁郡すさみ町江住808-1","住所（英語）":"808-1 Esumi, Susamicho, Nishimuro-gun","検索条件エリア":"白浜・串本エリア","カテゴリ（まとめ）":"観光スポット,その他","SSID種類":"N","lat":33.515518,"lng":135.601379},
{"id":365,"店舗名":"バニラカフェ","店舗名（英語）":"Vanilla Cafe ","住所":"田辺市南新町201","住所（英語）":"201 Minamishinmachi, Tanaba-shi","検索条件エリア":"熊野エリア","カテゴリ（まとめ）":"グルメ","SSID種類":"N","lat":33.732597,"lng":135.3806},
{"id":366,"店舗名":"よし平　総本店","店舗名（英語）":"Yoshihei main restaurant","住所":"田辺市神島台1-19","住所（英語）":"1-19 Kashimadai, Tanabe-shi","検索条件エリア":"熊野エリア","カテゴリ（まとめ）":"グルメ","SSID種類":"N","lat":33.708248,"lng":135.401337},
{"id":367,"店舗名":"紀州うまいもん家傳八","店舗名（英語）":"Kishu Umaimon-Ya Denpachi restaurant","住所":"田辺市新庄町451-3","住所（英語）":"451-3 Shinjocho, Tanabe-shi","検索条件エリア":"熊野エリア","カテゴリ（まとめ）":"グルメ","SSID種類":"N","lat":33.720535,"lng":135.401398},
{"id":368,"店舗名":"ホテル南海楼","店舗名（英語）":"Hotel Nankairo","住所":"田辺市湊996","住所（英語）":"996 Minato, Tanabe-shi","検索条件エリア":"熊野エリア","カテゴリ（まとめ）":"宿泊","SSID種類":"L","lat":33.731613,"lng":135.383606},
{"id":369,"店舗名":"道の駅すさみ","店舗名（英語）":"Susami Michinoeki Road Station","住所":"西牟婁郡すさみ町江住808番地-1","住所（英語）":"808-1 Esumi, Susamicho, Nishimuro-gun","検索条件エリア":"白浜・串本エリア","カテゴリ（まとめ）":"グルメ,ショッピング,観光スポット,その他","SSID種類":"N","lat":33.515518,"lng":135.601379},
{"id":370,"店舗名":"メガネのエノモト時計店","店舗名（英語）":"Meganeno Enomoto Eye Glasses and Watches Shop","住所":"田辺市湊1032","住所（英語）":"1032 Minato, Tanabe-shi","検索条件エリア":"熊野エリア","カテゴリ（まとめ）":"ショッピング","SSID種類":"N","lat":33.731613,"lng":135.383606},
{"id":371,"店舗名":"民宿　五幸","店舗名（英語）":"Guesthouse Gokou","住所":"西牟婁郡白浜町御幸通3340-19","住所（英語）":"3340-19 Miyukidori, Shirahamacho, Nishimuro-gun","検索条件エリア":"白浜・串本エリア","カテゴリ（まとめ）":"宿泊","SSID種類":"N","lat":33.669189,"lng":135.402939},
{"id":372,"店舗名":"丸井旅館","店舗名（英語）":"Marui Ryokan, Inn","住所":"田辺市龍神村西9-2","住所（英語）":"9-2 Ryujinmuranishi, Tanabe-shi","検索条件エリア":"熊野エリア","カテゴリ（まとめ）":"宿泊","SSID種類":"N","lat":33.893108,"lng":135.488632},
{"id":373,"店舗名":"くまの薬局","店舗名（英語）":"Kumano Pharmacy","住所":"田辺市本宮町本宮256-1","住所（英語）":"256-1 Hongucho Hongu, Tanabe-shi","検索条件エリア":"熊野エリア","カテゴリ（まとめ）":"ショッピング","SSID種類":"N","lat":33.836582,"lng":135.7715},
{"id":374,"店舗名":"本宮石油","店舗名（英語）":"Hongu Sekiyu Gas station","住所":"田辺市本宮町本宮1575-1","住所（英語）":"1575-1 Hongucho Hongu, Tanabe-shi","検索条件エリア":"熊野エリア","カテゴリ（まとめ）":"その他","SSID種類":"L","lat":33.836582,"lng":135.7715},
{"id":375,"店舗名":"ウッドストック","店舗名（英語）":"WOOD STOCK Italian Restaurant","住所":"田辺市中屋敷町7-1","住所（英語）":"7-1 Nakayashikimachi, Tanabe-shi","検索条件エリア":"熊野エリア","カテゴリ（まとめ）":"グルメ","SSID種類":"N","lat":33.732929,"lng":135.377274},
{"id":376,"店舗名":"民宿天空のさと山","店舗名（英語）":"Guesthouse Tenku no Satoyama","住所":"田辺市中辺路町高原916-1","住所（英語）":"916-1 Takahara, Nakahechicho, Tanabe-shi","検索条件エリア":"熊野エリア","カテゴリ（まとめ）":"宿泊","SSID種類":"L","lat":33.786282,"lng":135.532532},
{"id":377,"店舗名":"喫茶　きっちん","店舗名（英語）":"Kitchen restaurant and café","住所":"田辺市本宮町本宮247-3","住所（英語）":"Hongu 247-3 Hongucho, Tanabe-shi","検索条件エリア":"熊野エリア","カテゴリ（まとめ）":"グルメ","SSID種類":"N","lat":33.836582,"lng":135.7715},
{"id":378,"店舗名":"プレジデント椿","店舗名（英語）":"President Tsubaki resort condominium","住所":"西牟婁郡白浜町椿1055-9","住所（英語）":"1055-9 Shirahamacho, Nishimuro-gun","検索条件エリア":"白浜・串本エリア","カテゴリ（まとめ）":"宿泊","SSID種類":"N","lat":33.60191,"lng":135.388779},
{"id":379,"店舗名":"リバージュ・スパひきがわ","店舗名（英語）":"Rivage Spa Hikigawa Onsen","住所":"西牟婁郡白浜町日置1013-25","住所（英語）":"1013-25 Hioki, Shirahamacho, Nishimuro-gun","検索条件エリア":"白浜・串本エリア","カテゴリ（まとめ）":"宿泊","SSID種類":"N","lat":33.572285,"lng":135.429993},
{"id":380,"店舗名":"秋津野ガルテン","店舗名（英語）":"Restaurant Akizuno Garten","住所":"田辺市上秋津4558-8","住所（英語）":"4558-8 Kamiakizu, Tanabe-shi","検索条件エリア":"熊野エリア","カテゴリ（まとめ）":"宿泊,グルメ,ショッピング,観光スポット,その他","SSID種類":"N","lat":33.756577,"lng":135.407379},
{"id":381,"店舗名":"美人亭","店舗名（英語）":"Bijintei Japanese-Style Bar","住所":"田辺市龍神村龍神96-3","住所（英語）":"96-3 Ryujin, Ryujin-mura, Tanabe-shi","検索条件エリア":"熊野エリア","カテゴリ（まとめ）":"宿泊","SSID種類":"L","lat":33.962479,"lng":135.561264},
{"id":382,"店舗名":"南方熊楠記念館","店舗名（英語）":"Minakata Kumagusu Museum","住所":"西牟婁郡白浜町3601-1","住所（英語）":"3601-1 Shirahamacho, Nishimuro-gun","検索条件エリア":"白浜・串本エリア","カテゴリ（まとめ）":"観光スポット","SSID種類":"N","lat":33.669189,"lng":135.402939},
{"id":383,"店舗名":"民宿　ゆの里","店舗名（英語）":"Minshuku Yunosato ","住所":"田辺市 本宮町 下湯川287","住所（英語）":"287 Shimoyukawa, Hongucho, Tanabe-shi","検索条件エリア":"熊野エリア","カテゴリ（まとめ）":"宿泊","SSID種類":"L","lat":33.824139,"lng":135.754578},
{"id":384,"店舗名":"ワインディングロード","店舗名（英語）":"Variety Store Winding Road","住所":"田辺市末広町17-21","住所（英語）":"17-21 Suehirocho, Tanabe-shi","検索条件エリア":"熊野エリア","カテゴリ（まとめ）":"宿泊","SSID種類":"N","lat":33.724377,"lng":135.382416},
{"id":385,"店舗名":"熊野ガラス工房","店舗名（英語）":"KUMANO Glass Workshop","住所":"田辺市本宮町本宮294","住所（英語）":"294 Tanabe-shi","検索条件エリア":"熊野エリア","カテゴリ（まとめ）":"グルメ,ショッピング,その他","SSID種類":"N","lat":33.836582,"lng":135.7715},
{"id":386,"店舗名":"ビデオボックスREMOVA田辺店","店舗名（英語）":"Video Box Remova DVD rental shop, tanabe","住所":"田辺市本町63","住所（英語）":"63 Honmachi, Tanabe-shi","検索条件エリア":"熊野エリア","カテゴリ（まとめ）":"ショッピング","SSID種類":"L","lat":33.73312,"lng":135.375534},
{"id":387,"店舗名":"ＧＡＭＥ　ＢＯＸ　ワンパク　田辺店","店舗名（英語）":"Game Box Wanpaku Tanabe Shop","住所":"田辺市本町63-3","住所（英語）":"63-3 Honmachi, Tanabe-shi","検索条件エリア":"熊野エリア","カテゴリ（まとめ）":"ショッピング","SSID種類":"L","lat":33.73312,"lng":135.375534},
{"id":388,"店舗名":"ＧＡＭＥ　ＢＯＸ　ワンパク　新庄店","店舗名（英語）":"Game Box Wanpaku Shinjo Shop","住所":"田辺市新庄町1977-4","住所（英語）":"1977-4 Shinjocho, Tanabe-shi","検索条件エリア":"熊野エリア","カテゴリ（まとめ）":"ショッピング","SSID種類":"L","lat":33.717064,"lng":135.404175},
{"id":389,"店舗名":"正寿院","店舗名（英語）":"Shoujuin temple","住所":"田辺市上芳養993-2","住所（英語）":"993-2 Kamihaya, Tanabe-shi","検索条件エリア":"熊野エリア","カテゴリ（まとめ）":"観光スポット,その他","SSID種類":"N","lat":33.788071,"lng":135.365509},
{"id":390,"店舗名":"民宿若竹","店舗名（英語）":"Wakatake guesthouse and Japanese-style bar","住所":"和歌山県西牟婁郡白浜町椿1062-8","住所（英語）":"1062-8 Tsubaki, Shirahamacho, Nishimuro-gun, Wakayama","検索条件エリア":"白浜・串本エリア","カテゴリ（まとめ）":"宿泊,グルメ","SSID種類":"L","lat":33.60191,"lng":135.388779},
{"id":391,"店舗名":"箸折茶屋","店舗名（英語）":"Restaurant Hashiorichaya","住所":"田辺市中辺路町近露907-2","住所（英語）":"907-2 Chikatsuyu, Nakahechicho, Tanabe-shi","検索条件エリア":"熊野エリア","カテゴリ（まとめ）":"グルメ","SSID種類":"N","lat":33.814606,"lng":135.605484},
{"id":392,"店舗名":"旬菜台所とも","店舗名（英語）":"Seasonal Vegetable Kitchen Tomo Restaurant","住所":"西牟婁郡白浜町1384-53","住所（英語）":"1384-53 Shirahamacho, Nishimuro-gun","検索条件エリア":"白浜・串本エリア","カテゴリ（まとめ）":"グルメ","SSID種類":"N","lat":33.669189,"lng":135.402939},
{"id":393,"店舗名":"お好み焼きおがわ","店舗名（英語）":"Ogawa okonomiyaki restaurant","住所":"西牟婁郡白浜町3309-27","住所（英語）":"3309-27 Shirahamacho, Nishimuro-gun","検索条件エリア":"白浜・串本エリア","カテゴリ（まとめ）":"グルメ","SSID種類":"L","lat":33.669189,"lng":135.402939},
{"id":394,"店舗名":"お食事しもじ　本店","店舗名（英語）":"Restaurant Oshokuji Shimoji Head Restaurant","住所":"田辺市本宮町請川330-1","住所（英語）":"330-1 Ukegawa, Hongucho, Tanabe-shi","検索条件エリア":"熊野エリア","カテゴリ（まとめ）":"グルメ","SSID種類":"N","lat":33.811665,"lng":135.802734},
{"id":395,"店舗名":"お食事しもじ　本宮店","店舗名（英語）":"Restaurant Oshokuji Shimoji Hongu","住所":"田辺市本宮町本宮285","住所（英語）":"285 Hongu, Hongucho, Tanabe-shi","検索条件エリア":"熊野エリア","カテゴリ（まとめ）":"グルメ","SSID種類":"N","lat":33.836582,"lng":135.7715},
{"id":396,"店舗名":"Ｙショップ　シモジ","店舗名（英語）":"Y Shop Shimoji Convenience Store","住所":"田辺市本宮町請川329-3","住所（英語）":"329-3 Ukegawa, Hongucho, Tanabe-shi","検索条件エリア":"熊野エリア","カテゴリ（まとめ）":"ショッピング","SSID種類":"N","lat":33.811665,"lng":135.802734},
{"id":397,"店舗名":"紀伊田辺シティプラザホテル","店舗名（英語）":"Kii Tanabe City Plaza Hotel","住所":"田辺市東山1-5-32","住所（英語）":"1-5-32 Higashiyama, Tanabe-shi","検索条件エリア":"熊野エリア","カテゴリ（まとめ）":"宿泊","SSID種類":"L","lat":33.728722,"lng":135.388626},
{"id":398,"店舗名":"亀屋旅館","店舗名（英語）":"Kameya Ryokan","住所":"田辺市本宮町川湯1434","住所（英語）":"1434 Kawayu, Hongucho, Tanabe-shi","検索条件エリア":"熊野エリア","カテゴリ（まとめ）":"宿泊","SSID種類":"N","lat":33.810955,"lng":135.774078},
{"id":399,"店舗名":"海のお宿","店舗名（英語）":"Umi no Oyado, hotel","住所":"西牟婁郡すさみ町江住906-18","住所（英語）":"906-18 Esumi, Susamicho, Nishimuro-gun","検索条件エリア":"白浜・串本エリア","カテゴリ（まとめ）":"宿泊","SSID種類":"L","lat":33.515518,"lng":135.601379},
{"id":400,"店舗名":"ホテル　ベルヴェデーレ","店舗名（英語）":"Hotel Bellevedere","住所":"西牟婁郡すさみ町周参見4857-3","住所（英語）":"4857-3 Susami, Susamicho, Nishimuro-gun","検索条件エリア":"白浜・串本エリア","カテゴリ（まとめ）":"宿泊","SSID種類":"L","lat":33.560928,"lng":135.479401},
{"id":401,"店舗名":"民宿　前田屋","店舗名（英語）":"Minshuku Maedaya","住所":"西牟婁郡白浜町久木869-33","住所（英語）":"869-33 Hisagi, Shirahamacho, Nishimuro-gun","検索条件エリア":"白浜・串本エリア","カテゴリ（まとめ）":"宿泊","SSID種類":"L","lat":33.637341,"lng":135.471024},
{"id":402,"店舗名":"田辺市旅館業組合","店舗名（英語）":"Tanabe-shi accomodation information office","住所":"田辺市湊727‐2 田辺市観光ｾﾝﾀｰ2階","住所（英語）":"Tanabe City Tourist Center 2F, 727-2 Minato, Tanabe-shi","検索条件エリア":"熊野エリア","カテゴリ（まとめ）":"公共交通,観光スポット,その他","SSID種類":"L","lat":33.731586,"lng":135.385666},
{"id":403,"店舗名":"村田写真館","店舗名（英語）":"Murata Photo Shop","住所":"田辺市今福町91","住所（英語）":"91 Imafukumachi, Tanabe-shi","検索条件エリア":"熊野エリア","カテゴリ（まとめ）":"ショッピング","SSID種類":"N","lat":33.732738,"lng":135.378494},
{"id":404,"店舗名":"よしのや旅館","店舗名（英語）":"Yoshinoya Inn","住所":"田辺市本宮町湯峯359","住所（英語）":"359 Honguchoyunomine, Tanabe-shi","検索条件エリア":"熊野エリア","カテゴリ（まとめ）":"宿泊","SSID種類":"N","lat":33.833786,"lng":135.755417},
{"id":405,"店舗名":"海鮮料理　甚力","店舗名（英語）":"Jin Rikky Seafood Restaurant","住所":"西牟婁郡白浜町3079","住所（英語）":"3079 Shirahamacho, Nishimuro-gun","検索条件エリア":"白浜・串本エリア","カテゴリ（まとめ）":"グルメ","SSID種類":"L","lat":33.669189,"lng":135.402939},
{"id":406,"店舗名":"ホテル　ルアンドン白浜","店舗名（英語）":"Hotel Luan Don Shirahama","住所":"西牟婁郡白浜町3354-9","住所（英語）":"3354-9 Shirahamacho, Nishimuro-gun","検索条件エリア":"白浜・串本エリア","カテゴリ（まとめ）":"宿泊","SSID種類":"L","lat":33.669189,"lng":135.402939},
{"id":407,"店舗名":"観音寺","店舗名（英語）":"Kannonji temple","住所":"西牟婁郡上富田町1977","住所（英語）":"1977  Kamitondacho, Nishimuro-gun","検索条件エリア":"白浜・串本エリア","カテゴリ（まとめ）":"観光スポット,その他","SSID種類":"L","lat":33.696411,"lng":135.428452},
{"id":408,"店舗名":"とれとれ市場 南紀白浜","店舗名（英語）":"Tore Tore Ichiba Seafood Market","住所":"西牟婁郡白浜町堅田2521","住所（英語）":"2521 Katata, Shirahamacho, Nishimuro-gun","検索条件エリア":"白浜・串本エリア","カテゴリ（まとめ）":"グルメ,ショッピング,観光スポット,その他","SSID種類":"N","lat":33.681217,"lng":135.375015},
{"id":409,"店舗名":"白浜温泉紀州路","店舗名（英語）":"Shirahama Onsen Kishuji Accommodation","住所":"西牟婁郡白浜町3018-2","住所（英語）":"3018-2 Shirahamacho, Nishimuro-gun","検索条件エリア":"白浜・串本エリア","カテゴリ（まとめ）":"宿泊","SSID種類":"L","lat":33.669189,"lng":135.402939},
{"id":410,"店舗名":"まるまさラーメン","店舗名（英語）":"Marumasa Ramen Restaurant","住所":"西牟婁郡白浜町890-37","住所（英語）":"890-37 Shirahamacho, Nishimuro-gun","検索条件エリア":"白浜・串本エリア","カテゴリ（まとめ）":"グルメ","SSID種類":"N","lat":33.669189,"lng":135.402939},
{"id":411,"店舗名":"闘鶏神社","店舗名（英語）":"Toukei-jinja Shrine","住所":"田辺市東陽1-1","住所（英語）":"1-1 Touyou, Tanabe-shi","検索条件エリア":"熊野エリア","カテゴリ（まとめ）":"観光スポット,その他","SSID種類":"N","lat":33.728203,"lng":135.390945},
{"id":412,"店舗名":"川湯みどりや","店舗名（英語）":"Kawayu Midoriya Ryokan","住所":"田辺市本宮町川湯13","住所（英語）":"13 Hongucho Kawayu, Tanabe-shi","検索条件エリア":"熊野エリア","カテゴリ（まとめ）":"宿泊","SSID種類":"L","lat":33.810955,"lng":135.774078},
{"id":413,"店舗名":"川湯まつや","店舗名（英語）":"Kawayu Matsuya Inn","住所":"田辺市本宮町川湯29","住所（英語）":"13 Kawayu Hongucho, Tanabe-shi","検索条件エリア":"熊野エリア","カテゴリ（まとめ）":"宿泊","SSID種類":"N","lat":33.810955,"lng":135.774078},
{"id":414,"店舗名":"民宿浜ぼう","店舗名（英語）":"Hamabou Minshuku","住所":"西牟婁郡白浜町49-1","住所（英語）":"49-1 Shirahamacho, Nishimuro-gun","検索条件エリア":"白浜・串本エリア","カテゴリ（まとめ）":"宿泊","SSID種類":"L","lat":33.669189,"lng":135.402939},
{"id":415,"店舗名":"居酒屋　卯八","店舗名（英語）":"Japanese-style Bar Uhachi","住所":"西牟婁郡白浜町2927-105","住所（英語）":"2927-105 Shirahamacho, Nishimuro-gun","検索条件エリア":"白浜・串本エリア","カテゴリ（まとめ）":"グルメ","SSID種類":"N","lat":33.669189,"lng":135.402939},
{"id":416,"店舗名":"ホテルサンリゾート白浜","店舗名（英語）":"Hotel Sunresort Shirahama","住所":"西牟婁郡白浜町堅田2500-185","住所（英語）":"2500-185 Katata, Shirahamacho, Nishimuro-gun","検索条件エリア":"白浜・串本エリア","カテゴリ（まとめ）":"宿泊","SSID種類":"L","lat":33.684429,"lng":135.367401},
{"id":417,"店舗名":"二宮","店舗名（英語）":"Ninomiya Japanese-style confection store","住所":"田辺市下屋敷町27","住所（英語）":"27 Shimoyashikimachi, Tanabe-shi","検索条件エリア":"熊野エリア","カテゴリ（まとめ）":"グルメ,ショッピング","SSID種類":"N","lat":33.73,"lng":135.381348},
{"id":418,"店舗名":"熊野本宮大社","店舗名（英語）":"Kumano Hongu Taisha Grand Shrine","住所":"田辺市本宮町本宮1110","住所（英語）":"1110 Honguchohongu, Tanabe-shi","検索条件エリア":"熊野エリア","カテゴリ（まとめ）":"観光スポット,その他","SSID種類":"N","lat":33.836582,"lng":135.7715},
{"id":419,"店舗名":"瑞鳳殿","店舗名（英語）":"Zuihoden","住所":"田辺市本宮町本宮195-3","住所（英語）":"195-3 Honguchohongu, Tanabe-shi","検索条件エリア":"熊野エリア","カテゴリ（まとめ）":"グルメ,ショッピング,観光スポット,その他","SSID種類":"N","lat":33.836582,"lng":135.7715},
{"id":420,"店舗名":"湯の峯荘","店舗名（英語）":"Yunominesou Inn","住所":"田辺市本宮町下湯川437","住所（英語）":"437 Shimoyukawa, Hongucho, Tanabe-shi","検索条件エリア":"熊野エリア","カテゴリ（まとめ）":"宿泊","SSID種類":"N","lat":33.824139,"lng":135.754578},
{"id":421,"店舗名":"瀧よし","店舗名（英語）":"Minshuku Takiyoshi ","住所":"田辺市本宮町湯峯260-4","住所（英語）":"260-4 Yunomine, Hongucho, Tanabe-shi","検索条件エリア":"熊野エリア","カテゴリ（まとめ）":"宿泊","SSID種類":"N","lat":33.833786,"lng":135.755417},
{"id":422,"店舗名":"Ｖショップ滝内店","店舗名（英語）":"V Shop Supermarket Takinai Store","住所":"田辺市新庄町2915-328","住所（英語）":"2915-328 Shinjocho, Tanabe-shi","検索条件エリア":"熊野エリア","カテゴリ（まとめ）":"ショッピング","SSID種類":"N","lat":33.705635,"lng":135.396301},
{"id":423,"店舗名":"Ｖショップ桟橋店","店舗名（英語）":"V Shop Supermarket Sanbashi Store","住所":"西牟婁郡白浜町3744-3","住所（英語）":"3744-3 Shirahamacho, Nishimuro-gun","検索条件エリア":"白浜・串本エリア","カテゴリ（まとめ）":"ショッピング","SSID種類":"N","lat":33.669189,"lng":135.402939},
{"id":424,"店舗名":"ザグランリゾートエレガンテ白浜","店舗名（英語）":"THE GRAN RESORT Elegante Shirahama Membership Hotel","住所":"西牟婁郡白浜町1813-8","住所（英語）":"1813-8 Shirahamacho, Nishimuro-gun","検索条件エリア":"白浜・串本エリア","カテゴリ（まとめ）":"宿泊","SSID種類":"L","lat":33.669189,"lng":135.402939},
{"id":425,"店舗名":"ホテルグリーンヒル白浜","店舗名（英語）":"Hotel Green Hill Shirahama","住所":"西牟婁郡白浜町2018","住所（英語）":"2018 Shirahamacho, Nishimuro-gun","検索条件エリア":"白浜・串本エリア","カテゴリ（まとめ）":"宿泊","SSID種類":"L","lat":33.669189,"lng":135.402939},
{"id":426,"店舗名":"玄米彩菜","店舗名（英語）":"Restaurant Genmaisaisai","住所":"田辺市新屋敷町6-1ﾊﾟｰｸｻｲﾄﾞﾎﾃﾙ7F","住所（英語）":"Parkside Hotel 7F, 6-1 Shinyashikimachi, Tanabe-shi","検索条件エリア":"熊野エリア","カテゴリ（まとめ）":"グルメ","SSID種類":"L","lat":33.726452,"lng":135.378738},
{"id":427,"店舗名":"鮨康","店舗名（英語）":"Japanese Restaurant Sushiko","住所":"田辺市高雄1丁目1-12","住所（英語）":"1-1-12 Takao, Tanabe-shi","検索条件エリア":"熊野エリア","カテゴリ（まとめ）":"グルメ","SSID種類":"L","lat":33.734985,"lng":135.381363},
{"id":428,"店舗名":"ハピネスちかつゆ","店舗名（英語）":"Happiness Chikatsuyu Rental House","住所":"田辺市近露606-2","住所（英語）":"606-2 Chikatsuyu, Tanabe-shi","検索条件エリア":"熊野エリア","カテゴリ（まとめ）":"宿泊","SSID種類":"L","lat":33.727798,"lng":135.377701},
{"id":429,"店舗名":"南紀白浜梅樽温泉ホテルシーモア","店舗名（英語）":"Nanki Shirahama Umedaru Onsen HOTEL SEAMORE","住所":"西牟婁郡白浜町1821","住所（英語）":"1821 Shirahamacho, Nishimuro-gun","検索条件エリア":"白浜・串本エリア","カテゴリ（まとめ）":"宿泊","SSID種類":"N","lat":33.669189,"lng":135.402939},
{"id":430,"店舗名":"温泉三昧の宿白浜館","店舗名（英語）":"Onsen Hotel Shirahamakan","住所":"西牟婁郡白浜町1379","住所（英語）":"1379 Shirahamacho, Nishimuro-gun","検索条件エリア":"白浜・串本エリア","カテゴリ（まとめ）":"宿泊","SSID種類":"N","lat":33.669189,"lng":135.402939},
{"id":431,"店舗名":"ホテル天山閣海ゆぅ庭","店舗名（英語）":"Hotel Tenzankaku Kaiyutei","住所":"西牟婁郡白浜町2020","住所（英語）":"2020 Shirahamacho, Nishimuro-gun","検索条件エリア":"白浜・串本エリア","カテゴリ（まとめ）":"宿泊","SSID種類":"N","lat":33.669189,"lng":135.402939},
{"id":432,"店舗名":"ホテル天山閣湯楽庵","店舗名（英語）":"Hotel Tenzankaku Yurakuan","住所":"西牟婁郡白浜町2927-553","住所（英語）":"2927-553 Shirahamacho, Nishimuro-gun","検索条件エリア":"白浜・串本エリア","カテゴリ（まとめ）":"宿泊","SSID種類":"N","lat":33.669189,"lng":135.402939},
{"id":433,"店舗名":"民宿ｉｎｎしらはま駅の宿","店舗名（英語）":"Minshuku Inn Shirahama Station Accommodation","住所":"西牟婁郡白浜町堅田1479-1","住所（英語）":"1479-1 Katata, Shirahamacho, Nishimuro-gun","検索条件エリア":"白浜・串本エリア","カテゴリ（まとめ）":"宿泊","SSID種類":"N","lat":33.680035,"lng":135.375351},
{"id":434,"店舗名":"休憩処いっぷく","店舗名（英語）":"Kyukeidokoro Ippuku Dining","住所":"田辺市本宮町本宮108-1","住所（英語）":"108-1 Hongu, Hongucho, Tanabe-shi","検索条件エリア":"熊野エリア","カテゴリ（まとめ）":"グルメ","SSID種類":"N","lat":33.836582,"lng":135.7715},
{"id":435,"店舗名":"まちなかキッチン","店舗名（英語）":"Machinaka Kitchen Restaurant","住所":"西牟婁郡白浜町3300-19","住所（英語）":"3300-19 Shirahamacho, Nishimuro-gun","検索条件エリア":"白浜・串本エリア","カテゴリ（まとめ）":"グルメ","SSID種類":"L","lat":33.669189,"lng":135.402939},
{"id":436,"店舗名":"民宿亀の井","店舗名（英語）":"Kamenoi Inn","住所":"東牟婁郡那智勝浦町朝日4丁目73番地","住所（英語）":"4-73 Asahi, Nachikatsuuracho, Higashimuro-gun","検索条件エリア":"熊野エリア","カテゴリ（まとめ）":"宿泊","SSID種類":"L","lat":33.631161,"lng":135.9384},
{"id":437,"店舗名":"民宿小出","店舗名（英語）":"Koide Inn","住所":"東牟婁郡那智勝浦町天満867-6","住所（英語）":"867-6 Tenma, Nachikatsuuracho, Higashimuro-gun","検索条件エリア":"熊野エリア","カテゴリ（まとめ）":"宿泊","SSID種類":"L","lat":33.631325,"lng":135.939194},
{"id":438,"店舗名":"花風月","店舗名（英語）":"Cafe Kafugetsu","住所":"新宮市上本町1-2-2","住所（英語）":"1-2-2 Kamihonmachi, Shingu-shi","検索条件エリア":"熊野エリア","カテゴリ（まとめ）":"グルメ","SSID種類":"L","lat":33.731071,"lng":135.984909},
{"id":439,"店舗名":"那智山観光センター","店舗名（英語）":"Nachisan Tourism Center ","住所":"東牟婁郡那智勝浦町那智山442-2","住所（英語）":"442-2 Nachisan, Nachikatsuuracho, Higashimuro-gun","検索条件エリア":"熊野エリア","カテゴリ（まとめ）":"グルメ,ショッピング,公共交通,観光スポット,その他","SSID種類":"N","lat":33.669655,"lng":135.892197},
{"id":440,"店舗名":"あづま寿司","店舗名（英語）":"Azuma Sushi","住所":"新宮市橋本2丁目11-33","住所（英語）":"2-11-33 Hashimoto, Shingu-shi","検索条件エリア":"熊野エリア","カテゴリ（まとめ）":"グルメ","SSID種類":"N","lat":33.715172,"lng":135.98941},
{"id":441,"店舗名":"民宿　百福","店舗名（英語）":"Guesthouse Momofuku","住所":"新宮市熊野川町西224-3","住所（英語）":"224-3 Nishi, Kumanogawacho, Shingu-shi","検索条件エリア":"熊野エリア","カテゴリ（まとめ）":"宿泊","SSID種類":"L","lat":33.756035,"lng":135.830261},
{"id":442,"店舗名":"徐福寿司　駅前店","店舗名（英語）":"Jofukuzushi Restaurant, Ekimae Branch","住所":"新宮市徐福2-1-9","住所（英語）":"2-1-9 Jofuku, Shingu-shi","検索条件エリア":"熊野エリア","カテゴリ（まとめ）":"グルメ","SSID種類":"N","lat":33.725517,"lng":135.994507},
{"id":443,"店舗名":"堀田精肉店","店舗名（英語）":"Hotta Meat Shop","住所":"新宮市神倉1丁目4-5","住所（英語）":"1-4-5 Kamikura, Shingu-shi","検索条件エリア":"熊野エリア","カテゴリ（まとめ）":"ショッピング","SSID種類":"N","lat":33.723415,"lng":135.98616},
{"id":444,"店舗名":"紀南石油販売所勝浦サービスステーション","店舗名（英語）":"Kinan Sekiyu gas station, Katsuura","住所":"東牟婁郡那智勝浦町朝日2丁目-231","住所（英語）":"2-231 Asahi, Nachikatsuuracho, Higashimuro-gun","検索条件エリア":"熊野エリア","カテゴリ（まとめ）":"その他","SSID種類":"N","lat":33.629745,"lng":135.937912},
{"id":445,"店舗名":"紀南石油販売所新宮サービスステーション","店舗名（英語）":"Kinan Sekiyu gas station, Shingu","住所":"新宮市神倉2丁目-9-13","住所（英語）":"2-9-13 Kamikura, Shingu-shi","検索条件エリア":"熊野エリア","カテゴリ（まとめ）":"その他","SSID種類":"N","lat":33.722271,"lng":135.986801},
{"id":446,"店舗名":"おむすび一郎","店舗名（英語）":"Omusubi Ichiro riceball take out shop, main shop","住所":"新宮市神倉1丁目7-26","住所（英語）":"1-7-26 Kamikura, Shingu-shi","検索条件エリア":"熊野エリア","カテゴリ（まとめ）":"ショッピング","SSID種類":"N","lat":33.722279,"lng":135.986099},
{"id":447,"店舗名":"熊野物産","店舗名（英語）":"Kumano Bussan regional specialty products store ","住所":"新宮市神倉2丁目8-11","住所（英語）":"2-8-11 Kamikura, Shingu-shi","検索条件エリア":"熊野エリア","カテゴリ（まとめ）":"ショッピング","SSID種類":"N","lat":33.722794,"lng":135.986816},
{"id":448,"店舗名":"堀忠酒店","店舗名（英語）":"Horichu Liquor Shop","住所":"東牟婁郡那智勝浦町築地3-3-6","住所（英語）":"3-3-6 Tsukiji, Nachikatsuuracho, Higashimuro-gun","検索条件エリア":"熊野エリア","カテゴリ（まとめ）":"ショッピング","SSID種類":"N","lat":33.628136,"lng":135.943436},
{"id":449,"店舗名":"潮岬青少年の家","店舗名（英語）":"Shionomisaki youth house","住所":"東牟婁郡串本町潮岬669","住所（英語）":"669 Shionomisaki, Kushimotocho, Higashimuro-gun","検索条件エリア":"白浜・串本エリア","カテゴリ（まとめ）":"宿泊","SSID種類":"L","lat":33.447922,"lng":135.760422},
{"id":450,"店舗名":"みさきロッヂ　西田","店舗名（英語）":"Misaki Lodge Nishida Minshuku","住所":"東牟婁郡串本町潮岬2864-1","住所（英語）":"2864-1 Shionomisaki, Kishimotocho, Higashimuro-gun","検索条件エリア":"白浜・串本エリア","カテゴリ（まとめ）":"宿泊","SSID種類":"L","lat":33.447922,"lng":135.760422},
{"id":451,"店舗名":"民宿　チャイム","店舗名（英語）":"Chime Inn","住所":"東牟婁郡串本町潮岬669","住所（英語）":"669 Shionomisaki, Kushimotocho, Higashimuro-gun","検索条件エリア":"白浜・串本エリア","カテゴリ（まとめ）":"宿泊","SSID種類":"L","lat":33.447922,"lng":135.760422},